{
  "results": [

  {
    "ID":"electricstereoathotmail.com",
    "email":"electricstereoathotmail.com",
    "name":"Galaxy LEDs",
    "address1":"2720 cheakamus way suite 2",
    "address2":"Test Address Line 2",
    "state":"British Columbia",
    "city":"Whistler",
    "country":"Canada",
    "website":"www.example.com",
    "hours":"9AM - 5PM Monday - Friday - Except Holidays",
    "phone":"011-801-000-0000",
    "zip":"V0N 1B2",
    "lat":50.0880454,
    "lon":-123.003571
    },
{
    "ID":"sccliftonathotmail.com",
    "email":"sccliftonathotmail.com",
    "name":"Green Thumb Hydroponics",
    "address1":"PO Box 34002",
    "address2":"Test Address Line 2",
    "state":"Manitoba",
    "city":"Winnipeg",
    "country":"Canada",
    "website":"www.example.com",
    "hours":"9AM - 5PM Monday - Friday - Except Holidays",
    "phone":"011--801-000-0000",
    "zip":"R3T 5T5",
    "lat":49.7896802,
    "lon":-97.1571686
    },
{
    "ID":"darrenatmygreenplanet.com",
    "email":"darrenatmygreenplanet.com",
    "name":"Gardening Unlimited",
    "address1":"15374-103A Avenue",
    "address2":"Test Address Line 2",
    "state":"British Columbia",
    "city":"Surrey",
    "country":"Canada",
    "website":"www.example.com",
    "hours":"9AM - 5PM Monday - Friday - Except Holidays",
    "phone":"011--801-000-0000",
    "zip":"V3R 7A2",
    "lat":49.1904806,
    "lon":-122.7955355
    },
{
    "ID":"vindoratshawbiz.ca",
    "email":"vindoratshawbiz.ca",
    "name":"Grofax",
    "address1":"#103-44195 Yale Rd. West",
    "address2":"Test Address Line 2",
    "state":"British Columbia",
    "city":"Chilliwack",
    "country":"Canada",
    "website":"www.example.com",
    "hours":"9AM - 5PM Monday - Friday - Except Holidays",
    "phone":"011--801-000-0000",
    "zip":"V2R 4H2",
    "lat":49.1457679,
    "lon":-122.001634
    },
{
    "ID":"cundersunatyahoo.com",
    "email":"cundersunatyahoo.com",
    "name":"IE Hydrogarden",
    "address1":"217 chemin Laurent",
    "address2":"Test Address Line 2",
    "state":"Quebec",
    "city":"Saint-Adolphe-d`Howard",
    "country":"Canada",
    "website":"www.example.com",
    "hours":"9AM - 5PM Monday - Friday - Except Holidays",
    "phone":"011--801-000-0000",
    "zip":"J0T 2B0",
    "lat":45.9965455,
    "lon":-74.283765
    },
{
    "ID":"rburnettsrn.rbatgmail.com",
    "email":"rburnettsrn.rbatgmail.com",
    "name":"Green Spot Hydro",
    "address1":"214 Queen Street",
    "address2":"Test Address Line 2",
    "state":"Ontario",
    "city":"Sarnia",
    "country":"Canada",
    "website":"www.example.com",
    "hours":"9AM - 5PM Monday - Friday - Except Holidays",
    "phone":"011--801-000-0000",
    "zip":"N7T2R6",
    "lat":42.9653335,
    "lon":-82.4074585
    },
{
    "ID":"infoattricoma.cl",
    "email":"infoattricoma.cl",
    "name":"Verde Manana",
    "address1":"Independencia 50 Oficina 8",
    "address2":"Test Address Line 2",
    "state":"Los Lagos",
    "city":"Puerto Varas",
    "country":"Mexico",
    "website":"www.example.com",
    "hours":"9AM - 5PM Monday - Friday - Except Holidays",
    "phone":"011--801-000-0000",
    "zip":"5550550",
    "lat":-41.3128966,
    "lon":-72.9864116
    },
{
    "ID":"salesateasygrow.co.nz",
    "email":"salesateasygrow.co.nz",
    "name":"Evergreen Garden supply",
    "address1":"Unit 9/69 Wiri Station Rd",
    "address2":"Test Address Line 2",
    "state":"Auckland",
    "city":"Manukau",
    "country":"New Zealand",
    "website":"www.example.com",
    "hours":"9AM - 5PM Monday - Friday - Except Holidays",
    "phone":"011--801-000-0000",
    "zip":"2104",
    "lat":-36.9980474,
    "lon":174.875025
    },
{
    "ID":"sorokin.ivanatgmail.com",
    "email":"sorokin.ivanatgmail.com",
    "name":"Greener Side of Life",
    "address1":"Blah Blah",
    "address2":"Test Address Line 2",
    "state":"Dealer",
    "city":"Kiev",
    "country":"Russia",
    "website":"www.example.com",
    "hours":"9AM - 5PM Monday - Friday - Except Holidays",
    "phone":"011--801-000-0000",
    "zip":"3035",
    "lat":50.433096,
    "lon":30.485026
    },
{
    "ID":"sorokin.ivanatgmail.com",
    "email":"sorokin.ivanatgmail.com",
    "name":"Gro More Garden Supply",
    "address1":"15 Uritskogo flat 95",
    "address2":"Test Address Line 2",
    "state":"Dealer",
    "city":"Kiev",
    "country":"Russia",
    "website":"www.example.com",
    "hours":"9AM - 5PM Monday - Friday - Except Holidays",
    "phone":"011--801-000-0000",
    "zip":"3035",
    "lat":50.433096,
    "lon":30.485026
    },
{
    "ID":"infoatsantyerbasi.com",
    "email":"infoatsantyerbasi.com",
    "name":"Horticultura Técnica",
    "address1":"Berlinés 4 Bajo",
    "address2":"Test Address Line 2",
    "state":"Barcelona",
    "city":"Barcelona",
    "country":"Spain",
    "website":"www.example.com",
    "hours":"9AM - 5PM Monday - Friday - Except Holidays",
    "phone":"011--801-000-0000",
    "zip":"8006",
    "lat":41.4035687,
    "lon":2.1399925
    },
{
    "ID":"salesatsgsak.com",
    "email":"salesatsgsak.com",
    "name":"Organic Garden Center",
    "address1":"12870 Old Seward Hwy #144",
    "address2":"Test Address Line 2",
    "state":"Alaska",
    "city":"Anchorage",
    "country":"United States",
    "website":"www.example.com",
    "hours":"9AM - 5PM Monday - Friday - Except Holidays",
    "phone":"011--801-000-0000",
    "zip":"99515",
    "lat":61.1035282,
    "lon":-149.8589795
    },
{
    "ID":"russell.petersonatalaska.net",
    "email":"russell.petersonatalaska.net",
    "name":"Craig Robbins LLC",
    "address1":"1687 Harbor Way",
    "address2":"Test Address Line 2",
    "state":"Alaska",
    "city":"Juneau",
    "country":"United States",
    "website":"www.example.com",
    "hours":"9AM - 5PM Monday - Friday - Except Holidays",
    "phone":"011--801-000-0000",
    "zip":"99801",
    "lat":58.3042572,
    "lon":-134.4299795
    },
{
    "ID":"salesatsgsak.com",
    "email":"salesatsgsak.com",
    "name":"Palm Tree Hydroponics",
    "address1":"P.O. Box 125",
    "address2":"Test Address Line 2",
    "state":"Alaska",
    "city":"Cold Bay",
    "country":"United States",
    "website":"www.example.com",
    "hours":"9AM - 5PM Monday - Friday - Except Holidays",
    "phone":"011--801-000-0000",
    "zip":"99571",
    "lat":55.2157912,
    "lon":-162.7686644
    },
{
    "ID":"secretgardensupplyatgmail.com",
    "email":"secretgardensupplyatgmail.com",
    "name":"Green Door Hydroponics",
    "address1":"152 Macleay Rd.",
    "address2":"Test Address Line 2",
    "state":"Washington",
    "city":"Sequim",
    "country":"United States",
    "website":"www.example.com",
    "hours":"9AM - 5PM Monday - Friday - Except Holidays",
    "phone":"011--801-000-0000",
    "zip":"98382",
    "lat":48.1086574,
    "lon":-123.17149
    },
{
    "ID":"Westcoastorganicsatgmail.com",
    "email":"Westcoastorganicsatgmail.com",
    "name":"Cost Plus Hydro",
    "address1":"8701 N Division St. Suite D",
    "address2":"Test Address Line 2",
    "state":"Washington",
    "city":"Spokane",
    "country":"United States",
    "website":"www.example.com",
    "hours":"9AM - 5PM Monday - Friday - Except Holidays",
    "phone":"011--801-000-0000",
    "zip":"99218",
    "lat":47.737011,
    "lon":-117.4119479
    },
{
    "ID":"danjsperryatgmail.com",
    "email":"danjsperryatgmail.com",
    "name":"All Gro Hydroponics (MI)",
    "address1":"4625 Lake WA Blvd. NE",
    "address2":"Test Address Line 2",
    "state":"Washington",
    "city":"Kirkland",
    "country":"United States",
    "website":"www.example.com",
    "hours":"9AM - 5PM Monday - Friday - Except Holidays",
    "phone":"011--801-000-0000",
    "zip":"98033",
    "lat":47.7020536,
    "lon":-122.1806374
    },
{
    "ID":"ryanatsodohydro.com",
    "email":"ryanatsodohydro.com",
    "name":"Bloom Garden Supply",
    "address1":"1727 1st Avenue South",
    "address2":"Test Address Line 2",
    "state":"Washington",
    "city":"Seattle",
    "country":"United States",
    "website":"www.example.com",
    "hours":"9AM - 5PM Monday - Friday - Except Holidays",
    "phone":"011--801-000-0000",
    "zip":"98134",
    "lat":47.5879367,
    "lon":-122.3342236
    },
{
    "ID":"indoortropicsatgmail.com",
    "email":"indoortropicsatgmail.com",
    "name":"Grass Valley Hydrogarden",
    "address1":"5930 Sunburst Lane Unit B",
    "address2":"Test Address Line 2",
    "state":"Washington",
    "city":"Cashmere",
    "country":"United States",
    "website":"www.example.com",
    "hours":"9AM - 5PM Monday - Friday - Except Holidays",
    "phone":"011--801-000-0000",
    "zip":"98815",
    "lat":47.529952,
    "lon":-120.493102
    },
{
    "ID":"arnoldmarkarnoldatgmail.com",
    "email":"arnoldmarkarnoldatgmail.com",
    "name":"Boldly Grow Hydro",
    "address1":"422 Mill Avenue South # 302",
    "address2":"Test Address Line 2",
    "state":"Washington",
    "city":"Renton",
    "country":"United States",
    "website":"www.example.com",
    "hours":"9AM - 5PM Monday - Friday - Except Holidays",
    "phone":"011--801-000-0000",
    "zip":"98057",
    "lat":47.47728,
    "lon":-122.202678
    },
{
    "ID":"gjamesattopics-ent.com",
    "email":"gjamesattopics-ent.com",
    "name":"DNA Genetics",
    "address1":"3405 Lind Ave",
    "address2":"Test Address Line 2",
    "state":"Washington",
    "city":"Renton",
    "country":"United States",
    "website":"www.example.com",
    "hours":"9AM - 5PM Monday - Friday - Except Holidays",
    "phone":"011--801-000-0000",
    "zip":"98057",
    "lat":47.449196,
    "lon":-122.2236192
    },
{
    "ID":"infoatelementalsolution.com",
    "email":"infoatelementalsolution.com",
    "name":"Long Beach Hydroponics",
    "address1":"20 42nd St NE Suite B",
    "address2":"Test Address Line 2",
    "state":"Washington",
    "city":"Auburn",
    "country":"United States",
    "website":"www.example.com",
    "hours":"9AM - 5PM Monday - Friday - Except Holidays",
    "phone":"011--801-000-0000",
    "zip":"98002",
    "lat":47.3442956,
    "lon":-122.2297883
    },
{
    "ID":"infoatelementalsolution.com",
    "email":"infoatelementalsolution.com",
    "name":"Room To Grow (CO)",
    "address1":"725 R ST NE",
    "address2":"Test Address Line 2",
    "state":"Washington",
    "city":"Auburn",
    "country":"United States",
    "website":"www.example.com",
    "hours":"9AM - 5PM Monday - Friday - Except Holidays",
    "phone":"011--801-000-0000",
    "zip":"98002",
    "lat":47.3150252,
    "lon":-122.2085299
    },
{
    "ID":"tomatmontana.net",
    "email":"tomatmontana.net",
    "name":"Hydro Your Own",
    "address1":"2105 Ottawa Street",
    "address2":"Test Address Line 2",
    "state":"Montana",
    "city":"Butte",
    "country":"United States",
    "website":"www.example.com",
    "hours":"9AM - 5PM Monday - Friday - Except Holidays",
    "phone":"011--801-000-0000",
    "zip":"59701",
    "lat":45.989772,
    "lon":-112.507614
    },
{
    "ID":"indoorgardensupplyllcatgmail.com",
    "email":"indoorgardensupplyllcatgmail.com",
    "name":"Frontier Services",
    "address1":"1250 Atlantic Ave.",
    "address2":"Test Address Line 2",
    "state":"Washington",
    "city":"Woodland",
    "country":"United States",
    "website":"www.example.com",
    "hours":"9AM - 5PM Monday - Friday - Except Holidays",
    "phone":"011--801-000-0000",
    "zip":"98674",
    "lat":45.908625,
    "lon":-122.743098
    },
{
    "ID":"jeanette52atoutlook.com",
    "email":"jeanette52atoutlook.com",
    "name":"Cedar Graphics",
    "address1":"P.O. Box 643",
    "address2":"Test Address Line 2",
    "state":"Oregon",
    "city":"Hermiston",
    "country":"United States",
    "website":"www.example.com",
    "hours":"9AM - 5PM Monday - Friday - Except Holidays",
    "phone":"011--801-000-0000",
    "zip":"97838",
    "lat":45.8282162,
    "lon":-119.2591627
    },
{
    "ID":"growgreenmontanaathotmail.com",
    "email":"growgreenmontanaathotmail.com",
    "name":"All Seasons Hydroponics",
    "address1":"P.O. Box 11138",
    "address2":"Test Address Line 2",
    "state":"Montana",
    "city":"Bozeman",
    "country":"United States",
    "website":"www.example.com",
    "hours":"9AM - 5PM Monday - Friday - Except Holidays",
    "phone":"011--801-000-0000",
    "zip":"59719",
    "lat":45.65,
    "lon":-111.17
    },
{
    "ID":"growgreenmontanaathotmail.com",
    "email":"growgreenmontanaathotmail.com",
    "name":"Michigan Garden Supply",
    "address1":"80085 Gallatin Road Suite F",
    "address2":"Test Address Line 2",
    "state":"Montana",
    "city":"Bozeman",
    "country":"United States",
    "website":"www.example.com",
    "hours":"9AM - 5PM Monday - Friday - Except Holidays",
    "phone":"011--801-000-0000",
    "zip":"59718",
    "lat":45.6469983,
    "lon":-111.1933397
    },
{
    "ID":"jordanatevergreengardensupply.com",
    "email":"jordanatevergreengardensupply.com",
    "name":"Budmaster LED",
    "address1":"10415 NE Sandy Blvd.",
    "address2":"Test Address Line 2",
    "state":"Oregon",
    "city":"Portland",
    "country":"United States",
    "website":"www.example.com",
    "hours":"9AM - 5PM Monday - Friday - Except Holidays",
    "phone":"011--801-000-0000",
    "zip":"97220",
    "lat":45.5591341,
    "lon":-122.5553697
    },
{
    "ID":"timatbloomgardensupply.com",
    "email":"timatbloomgardensupply.com",
    "name":"Garden Spout Portland",
    "address1":"518 Northeast 20TH Ave.",
    "address2":"Test Address Line 2",
    "state":"Oregon",
    "city":"Portland",
    "country":"United States",
    "website":"www.example.com",
    "hours":"9AM - 5PM Monday - Friday - Except Holidays",
    "phone":"011--801-000-0000",
    "zip":"97232",
    "lat":45.5269212,
    "lon":-122.6451395
    },
{
    "ID":"nlgdavidatyahoo.com",
    "email":"nlgdavidatyahoo.com",
    "name":"Cultivate Hydroponics & Organics",
    "address1":"9290 South Beaverton Hills Highway",
    "address2":"Test Address Line 2",
    "state":"Oregon",
    "city":"Beaverton",
    "country":"United States",
    "website":"www.example.com",
    "hours":"9AM - 5PM Monday - Friday - Except Holidays",
    "phone":"011--801-000-0000",
    "zip":"97005",
    "lat":45.4864324,
    "lon":-122.772337
    },
{
    "ID":"kevincatadvancednutrients.com",
    "email":"kevincatadvancednutrients.com",
    "name":"Victory Hydro Gardens",
    "address1":"7335 SE 18th Ave.",
    "address2":"Test Address Line 2",
    "state":"Oregon",
    "city":"Portland",
    "country":"United States",
    "website":"www.example.com",
    "hours":"9AM - 5PM Monday - Friday - Except Holidays",
    "phone":"011--801-000-0000",
    "zip":"97202",
    "lat":45.471468,
    "lon":-122.646744
    },
{
    "ID":"benatportlandhydro.com",
    "email":"benatportlandhydro.com",
    "name":"Cannabis Now Magazine",
    "address1":"11564 SW Pacific Highway",
    "address2":"Test Address Line 2",
    "state":"Oregon",
    "city":"Tigard",
    "country":"United States",
    "website":"www.example.com",
    "hours":"9AM - 5PM Monday - Friday - Except Holidays",
    "phone":"011--801-000-0000",
    "zip":"97223",
    "lat":45.4397586,
    "lon":-122.750194
    },
{
    "ID":"Westcoastorganicsatgmail.com",
    "email":"Westcoastorganicsatgmail.com",
    "name":"Method Seven Employee Specials $50.00",
    "address1":"12410 SE 282nd Ave. Unit C",
    "address2":"Test Address Line 2",
    "state":"Oregon",
    "city":"Boring",
    "country":"United States",
    "website":"www.example.com",
    "hours":"9AM - 5PM Monday - Friday - Except Holidays",
    "phone":"011--801-000-0000",
    "zip":"97009",
    "lat":45.4331375,
    "lon":-122.3717846
    },
{
    "ID":"guyatwillametteindoorgardensupply.com",
    "email":"guyatwillametteindoorgardensupply.com",
    "name":"Urban Grower",
    "address1":"408 Beaver Creek Road Suite 402",
    "address2":"Test Address Line 2",
    "state":"Oregon",
    "city":"Oregon City",
    "country":"United States",
    "website":"www.example.com",
    "hours":"9AM - 5PM Monday - Friday - Except Holidays",
    "phone":"011--801-000-0000",
    "zip":"97045",
    "lat":45.3331664,
    "lon":-122.5913967
    },
{
    "ID":"salesatglhydroco.com",
    "email":"salesatglhydroco.com",
    "name":"Northeast Hydroponics and Homebrewing",
    "address1":"5998 US 31 South",
    "address2":"Test Address Line 2",
    "state":"Michigan",
    "city":"Charlevoix",
    "country":"United States",
    "website":"www.example.com",
    "hours":"9AM - 5PM Monday - Friday - Except Holidays",
    "phone":"011--801-000-0000",
    "zip":"49720",
    "lat":45.2934376,
    "lon":-85.2956272
    },
{
    "ID":"salesatglhydroco.com",
    "email":"salesatglhydroco.com",
    "name":"Northeast Hydroponics and Homebrewing",
    "address1":"05998 U.S. 31 South",
    "address2":"Test Address Line 2",
    "state":"Michigan",
    "city":"Charlievoix",
    "country":"United States",
    "website":"www.example.com",
    "hours":"9AM - 5PM Monday - Friday - Except Holidays",
    "phone":"011--801-000-0000",
    "zip":"49720",
    "lat":45.2917825,
    "lon":-85.3012187
    },
{
    "ID":"dealerservicesatmethodseven.com",
    "email":"dealerservicesatmethodseven.com",
    "name":"Specialized Bicycle Components",
    "address1":"1026 NE Irvine Street",
    "address2":"Test Address Line 2",
    "state":"Oregon",
    "city":"McMinnville",
    "country":"United States",
    "website":"www.example.com",
    "hours":"9AM - 5PM Monday - Friday - Except Holidays",
    "phone":"011--801-000-0000",
    "zip":"97128",
    "lat":45.2152928,
    "lon":-123.1895839
    },
{
    "ID":"kelwah50atgmail.com",
    "email":"kelwah50atgmail.com",
    "name":"The Garden Connection",
    "address1":"3837 River Rd. N.",
    "address2":"Test Address Line 2",
    "state":"Oregon",
    "city":"Keiser",
    "country":"United States",
    "website":"www.example.com",
    "hours":"9AM - 5PM Monday - Friday - Except Holidays",
    "phone":"011--801-000-0000",
    "zip":"97303",
    "lat":44.9812814,
    "lon":-123.0266103
    },
{
    "ID":"thehomegrownconnectionathotmail.com",
    "email":"thehomegrownconnectionathotmail.com",
    "name":"Fox Head, Inc",
    "address1":"407 Wilton Road",
    "address2":"Test Address Line 2",
    "state":"Maine",
    "city":"Farmington",
    "country":"United States",
    "website":"www.example.com",
    "hours":"9AM - 5PM Monday - Friday - Except Holidays",
    "phone":"011--801-000-0000",
    "zip":"4938",
    "lat":44.6384573,
    "lon":-70.1533055
    },
{
    "ID":"kellyatcorvallishydro.com",
    "email":"kellyatcorvallishydro.com",
    "name":"Garden all Year",
    "address1":"5490 SW Philomath Blvd.",
    "address2":"Test Address Line 2",
    "state":"Oregon",
    "city":"Corvallis",
    "country":"United States",
    "website":"www.example.com",
    "hours":"9AM - 5PM Monday - Friday - Except Holidays",
    "phone":"011--801-000-0000",
    "zip":"97333",
    "lat":44.5498519,
    "lon":-123.3142268
    },
{
    "ID":"supportatgtghydroponics.com",
    "email":"supportatgtghydroponics.com",
    "name":"Flora Hydroponics",
    "address1":"PO Box 235",
    "address2":"Test Address Line 2",
    "state":"Vermont",
    "city":"Underhill",
    "country":"United States",
    "website":"www.example.com",
    "hours":"9AM - 5PM Monday - Friday - Except Holidays",
    "phone":"011--801-000-0000",
    "zip":"5489",
    "lat":44.5481845,
    "lon":-72.8763806
    },
{
    "ID":"bartlettfunnyfarmatgmail.com",
    "email":"bartlettfunnyfarmatgmail.com",
    "name":"Hydroponics Inc.",
    "address1":"3 Bird Hill Road",
    "address2":"Test Address Line 2",
    "state":"Maine",
    "city":"Greenwood",
    "country":"United States",
    "website":"www.example.com",
    "hours":"9AM - 5PM Monday - Friday - Except Holidays",
    "phone":"011--801-000-0000",
    "zip":"4225",
    "lat":44.4005778,
    "lon":-70.7035016
    },
{
    "ID":"growinsideoutatgate.net",
    "email":"growinsideoutatgate.net",
    "name":"Grofax 5",
    "address1":"1766 Federal Road Suite D",
    "address2":"Test Address Line 2",
    "state":"Maine",
    "city":"Livermore",
    "country":"United States",
    "website":"www.example.com",
    "hours":"9AM - 5PM Monday - Friday - Except Holidays",
    "phone":"011--801-000-0000",
    "zip":"4253",
    "lat":44.3736467,
    "lon":-70.2504741
    },
{
    "ID":"salesatgrowitbest.com",
    "email":"salesatgrowitbest.com",
    "name":"Timponic Produce Management Solutions, LTD.",
    "address1":"628 SW Glacier Ave Suite C",
    "address2":"Test Address Line 2",
    "state":"Oregon",
    "city":"Redmond",
    "country":"United States",
    "website":"www.example.com",
    "hours":"9AM - 5PM Monday - Friday - Except Holidays",
    "phone":"011--801-000-0000",
    "zip":"97756",
    "lat":44.270296,
    "lon":-121.175022
    },
{
    "ID":"kellyatdakine420.com",
    "email":"kellyatdakine420.com",
    "name":"Flint Digital",
    "address1":"2574 NW Champion Circle",
    "address2":"Test Address Line 2",
    "state":"Oregon",
    "city":"Bend",
    "country":"United States",
    "website":"www.example.com",
    "hours":"9AM - 5PM Monday - Friday - Except Holidays",
    "phone":"011--801-000-0000",
    "zip":"97701",
    "lat":44.077885,
    "lon":-121.352588
    },
{
    "ID":"brentattheherbcenter.net",
    "email":"brentattheherbcenter.net",
    "name":"The Green Thumb",
    "address1":"2205 Northeast Division",
    "address2":"Test Address Line 2",
    "state":"Oregon",
    "city":"Bend",
    "country":"United States",
    "website":"www.example.com",
    "hours":"9AM - 5PM Monday - Friday - Except Holidays",
    "phone":"011--801-000-0000",
    "zip":"97701",
    "lat":44.071888,
    "lon":-121.306293
    },
{
    "ID":"greenersideoflifeatcomcast.net",
    "email":"greenersideoflifeatcomcast.net",
    "name":"Mile High Cannabis",
    "address1":"623 W. Centennial Ave.",
    "address2":"Test Address Line 2",
    "state":"Oregon",
    "city":"Springfield, OR",
    "country":"United States",
    "website":"www.example.com",
    "hours":"9AM - 5PM Monday - Friday - Except Holidays",
    "phone":"011--801-000-0000",
    "zip":"97477",
    "lat":44.057122,
    "lon":-123.0347239
    },
{
    "ID":"abeaudoinatbendbroadband.com",
    "email":"abeaudoinatbendbroadband.com",
    "name":"Advanced Nutrients",
    "address1":"35 NW Bond St.",
    "address2":"Test Address Line 2",
    "state":"Oregon",
    "city":"Bend",
    "country":"United States",
    "website":"www.example.com",
    "hours":"9AM - 5PM Monday - Friday - Except Holidays",
    "phone":"011--801-000-0000",
    "zip":"97701",
    "lat":44.052078,
    "lon":-121.316763
    },
{
    "ID":"mattmongeratgmail.com",
    "email":"mattmongeratgmail.com",
    "name":"Flora Grow Ltd.",
    "address1":"2440 Adams St.",
    "address2":"Test Address Line 2",
    "state":"Oregon",
    "city":"Eugene",
    "country":"United States",
    "website":"www.example.com",
    "hours":"9AM - 5PM Monday - Friday - Except Holidays",
    "phone":"011--801-000-0000",
    "zip":"97405",
    "lat":44.032337,
    "lon":-123.107447
    },
{
    "ID":"mattmongeratgmail.com",
    "email":"mattmongeratgmail.com",
    "name":"Tru Bloomz Hydroponics",
    "address1":"88680 McVay Hwy",
    "address2":"Test Address Line 2",
    "state":"Oregon",
    "city":"Eugene",
    "country":"United States",
    "website":"www.example.com",
    "hours":"9AM - 5PM Monday - Friday - Except Holidays",
    "phone":"011--801-000-0000",
    "zip":"97405",
    "lat":44.0173905,
    "lon":-123.0254407
    },
{
    "ID":"amacriatcomcast.net",
    "email":"amacriatcomcast.net",
    "name":"Grow Guru Horticulture (Pty) South Africa",
    "address1":"362 Richardson Road",
    "address2":"Test Address Line 2",
    "state":"Maine",
    "city":"Hiram",
    "country":"United States",
    "website":"www.example.com",
    "hours":"9AM - 5PM Monday - Friday - Except Holidays",
    "phone":"011--801-000-0000",
    "zip":"4041",
    "lat":43.814693,
    "lon":-70.7926856
    },
{
    "ID":"207katahdinatgmail.com",
    "email":"207katahdinatgmail.com",
    "name":"Horizen Hydroponics/Growers Outlet",
    "address1":"659 Warren Ave",
    "address2":"Test Address Line 2",
    "state":"Maine",
    "city":"Portland",
    "country":"United States",
    "website":"www.example.com",
    "hours":"9AM - 5PM Monday - Friday - Except Holidays",
    "phone":"011--801-000-0000",
    "zip":"4103",
    "lat":43.687259,
    "lon":-70.327667
    },
{
    "ID":"hempknight848atgmail.com",
    "email":"hempknight848atgmail.com",
    "name":"MethodSeven Sales",
    "address1":"8875 Jefferson Rd",
    "address2":"Test Address Line 2",
    "state":"Michigan",
    "city":"Lakeview",
    "country":"United States",
    "website":"www.example.com",
    "hours":"9AM - 5PM Monday - Friday - Except Holidays",
    "phone":"011--801-000-0000",
    "zip":"48850",
    "lat":43.4893334,
    "lon":-85.2627696
    },
{
    "ID":"growtchsatgmail.com",
    "email":"growtchsatgmail.com",
    "name":"Horticontrol",
    "address1":"1965 Holton Road",
    "address2":"Test Address Line 2",
    "state":"Michigan",
    "city":"Muskegon",
    "country":"United States",
    "website":"www.example.com",
    "hours":"9AM - 5PM Monday - Friday - Except Holidays",
    "phone":"011--801-000-0000",
    "zip":"49445",
    "lat":43.2892963,
    "lon":-86.2153388
    },
{
    "ID":"omahaatparadigmgardens.com",
    "email":"omahaatparadigmgardens.com",
    "name":"Battle Creek Indoor Gardening",
    "address1":"4501 Helgesen Dr.",
    "address2":"Test Address Line 2",
    "state":"Wisconsin",
    "city":"Madison",
    "country":"United States",
    "website":"www.example.com",
    "hours":"9AM - 5PM Monday - Friday - Except Holidays",
    "phone":"011--801-000-0000",
    "zip":"53718",
    "lat":43.066109,
    "lon":-89.30643
    },
{
    "ID":"kevinpratt808atgmail.com",
    "email":"kevinpratt808atgmail.com",
    "name":"Illumitex",
    "address1":"545 Hooksett Rd. Unit #24",
    "address2":"Test Address Line 2",
    "state":"New Hampshire",
    "city":"Manchester",
    "country":"United States",
    "website":"www.example.com",
    "hours":"9AM - 5PM Monday - Friday - Except Holidays",
    "phone":"011--801-000-0000",
    "zip":"3104",
    "lat":43.0149485,
    "lon":-71.4506425
    },
{
    "ID":"happyharvesterburtonatgmail.com",
    "email":"happyharvesterburtonatgmail.com",
    "name":"New Mexico Hydroponics",
    "address1":"4410 S. Saginaw",
    "address2":"Test Address Line 2",
    "state":"Michigan",
    "city":"Burton",
    "country":"United States",
    "website":"www.example.com",
    "hours":"9AM - 5PM Monday - Friday - Except Holidays",
    "phone":"011--801-000-0000",
    "zip":"48529",
    "lat":42.963458,
    "lon":-83.670913
    },
{
    "ID":"myocinaatyahoo.com",
    "email":"myocinaatyahoo.com",
    "name":"Purely Hydroponic",
    "address1":"P.O. Box 251",
    "address2":"Test Address Line 2",
    "state":"New York",
    "city":"Corfu",
    "country":"United States",
    "website":"www.example.com",
    "hours":"9AM - 5PM Monday - Friday - Except Holidays",
    "phone":"011--801-000-0000",
    "zip":"14036",
    "lat":42.9600595,
    "lon":-78.4055767
    },
{
    "ID":"secondchance19atgmail.com",
    "email":"secondchance19atgmail.com",
    "name":"Outside In Hydro & Organics AU",
    "address1":"692 Franklin St.",
    "address2":"Test Address Line 2",
    "state":"New York",
    "city":"Skaneateles",
    "country":"United States",
    "website":"www.example.com",
    "hours":"9AM - 5PM Monday - Friday - Except Holidays",
    "phone":"011--801-000-0000",
    "zip":"13152",
    "lat":42.954633,
    "lon":-76.455242
    },
{
    "ID":"myocinaatyahoo.com",
    "email":"myocinaatyahoo.com",
    "name":"Smith Indoor Garden",
    "address1":"1102 Ganson Ave.",
    "address2":"Test Address Line 2",
    "state":"New York",
    "city":"Corfu",
    "country":"United States",
    "website":"www.example.com",
    "hours":"9AM - 5PM Monday - Friday - Except Holidays",
    "phone":"011--801-000-0000",
    "zip":"14036",
    "lat":42.954374,
    "lon":-78.4073499
    },
{
    "ID":"secondchance19atgmail.com",
    "email":"secondchance19atgmail.com",
    "name":"Harvest Time Hydroponics AU",
    "address1":"PO Box 324",
    "address2":"Test Address Line 2",
    "state":"New York",
    "city":"Skaneateles",
    "country":"United States",
    "website":"www.example.com",
    "hours":"9AM - 5PM Monday - Friday - Except Holidays",
    "phone":"011--801-000-0000",
    "zip":"13152",
    "lat":42.947011,
    "lon":-76.4291017
    },
{
    "ID":"pjw368atgmail.com",
    "email":"pjw368atgmail.com",
    "name":"Bedford Grow LLC",
    "address1":"1860 Stilesgate St. SE",
    "address2":"Test Address Line 2",
    "state":"Michigan",
    "city":"Grand Rapids",
    "country":"United States",
    "website":"www.example.com",
    "hours":"9AM - 5PM Monday - Friday - Except Holidays",
    "phone":"011--801-000-0000",
    "zip":"49508",
    "lat":42.895731,
    "lon":-85.619457
    },
{
    "ID":"greenmtnhydroatgmail.com",
    "email":"greenmtnhydroatgmail.com",
    "name":"Rhode Island Hydroponics",
    "address1":"106 North Street",
    "address2":"Test Address Line 2",
    "state":"Vermont",
    "city":"Bennington",
    "country":"United States",
    "website":"www.example.com",
    "hours":"9AM - 5PM Monday - Friday - Except Holidays",
    "phone":"011--801-000-0000",
    "zip":"5201",
    "lat":42.8785912,
    "lon":-73.1971405
    },
{
    "ID":"Horizenhydroponicsatgmail.com",
    "email":"Horizenhydroponicsatgmail.com",
    "name":"Greenlife Garden Supply",
    "address1":"7720 Clyde Park Ave SW",
    "address2":"Test Address Line 2",
    "state":"Michigan",
    "city":"Byron Center",
    "country":"United States",
    "website":"www.example.com",
    "hours":"9AM - 5PM Monday - Friday - Except Holidays",
    "phone":"011--801-000-0000",
    "zip":"49315",
    "lat":42.8243584,
    "lon":-85.6828625
    },
{
    "ID":"infoatHGRsupply.com",
    "email":"infoatHGRsupply.com",
    "name":"Cedar Graphics",
    "address1":"15231 N. Holly Rd.",
    "address2":"Test Address Line 2",
    "state":"Michigan",
    "city":"Holly",
    "country":"United States",
    "website":"www.example.com",
    "hours":"9AM - 5PM Monday - Friday - Except Holidays",
    "phone":"011--801-000-0000",
    "zip":"48442",
    "lat":42.8166007,
    "lon":-83.6283928
    },
{
    "ID":"Jaymthorburnatgmail.com",
    "email":"Jaymthorburnatgmail.com",
    "name":"The University of Western Australia",
    "address1":"2208 E Michigan Ave.",
    "address2":"Test Address Line 2",
    "state":"Michigan",
    "city":"Lansing",
    "country":"United States",
    "website":"www.example.com",
    "hours":"9AM - 5PM Monday - Friday - Except Holidays",
    "phone":"011--801-000-0000",
    "zip":"48912",
    "lat":42.7333408,
    "lon":-84.5196369
    },
{
    "ID":"jeff.gibsonatsuperiorgrowers.com",
    "email":"jeff.gibsonatsuperiorgrowers.com",
    "name":"Eye Care Center of Snohomish",
    "address1":"5711 Enterprise Dr.",
    "address2":"Test Address Line 2",
    "state":"Michigan",
    "city":"Lansing",
    "country":"United States",
    "website":"www.example.com",
    "hours":"9AM - 5PM Monday - Friday - Except Holidays",
    "phone":"011--801-000-0000",
    "zip":"48911",
    "lat":42.674705,
    "lon":-84.5278189
    },
{
    "ID":"Elizabeth.Kellyatsuperiorgrowers.com",
    "email":"Elizabeth.Kellyatsuperiorgrowers.com",
    "name":"Bear Valley Hydroponics & Homebrewing",
    "address1":"5711 Enterprise Drive",
    "address2":"Test Address Line 2",
    "state":"Michigan",
    "city":"East Lansing",
    "country":"United States",
    "website":"www.example.com",
    "hours":"9AM - 5PM Monday - Friday - Except Holidays",
    "phone":"011--801-000-0000",
    "zip":"48911",
    "lat":42.6745155,
    "lon":-84.5284082
    },
{
    "ID":"Infoatthegrowstop.com",
    "email":"Infoatthegrowstop.com",
    "name":"Phenotype Farmers",
    "address1":"7380 Highland Road",
    "address2":"Test Address Line 2",
    "state":"Michigan",
    "city":"Waterford",
    "country":"United States",
    "website":"www.example.com",
    "hours":"9AM - 5PM Monday - Friday - Except Holidays",
    "phone":"011--801-000-0000",
    "zip":"48327",
    "lat":42.661782,
    "lon":-83.434178
    },
{
    "ID":"Organicagardensupplyatgmail.com",
    "email":"Organicagardensupplyatgmail.com",
    "name":"Lux Cuttings",
    "address1":"467 Delaware Ave.",
    "address2":"Test Address Line 2",
    "state":"New York",
    "city":"Albany",
    "country":"United States",
    "website":"www.example.com",
    "hours":"9AM - 5PM Monday - Friday - Except Holidays",
    "phone":"011--801-000-0000",
    "zip":"12209",
    "lat":42.6403869,
    "lon":-73.784468
    },
{
    "ID":"jsorensenathydroyourown.com",
    "email":"jsorensenathydroyourown.com",
    "name":"A Fertile World",
    "address1":"8501 75th Street Unit C",
    "address2":"Test Address Line 2",
    "state":"Wisconsin",
    "city":"Kenosha",
    "country":"United States",
    "website":"www.example.com",
    "hours":"9AM - 5PM Monday - Friday - Except Holidays",
    "phone":"011--801-000-0000",
    "zip":"53142",
    "lat":42.565746,
    "lon":-87.910436
    },
{
    "ID":"bilcoindatcenturylink.net",
    "email":"bilcoindatcenturylink.net",
    "name":"Hydro Capitol",
    "address1":"PO Box 1105",
    "address2":"Test Address Line 2",
    "state":"Oregon",
    "city":"Eagle Point",
    "country":"United States",
    "website":"www.example.com",
    "hours":"9AM - 5PM Monday - Friday - Except Holidays",
    "phone":"011--801-000-0000",
    "zip":"97524",
    "lat":42.4726258,
    "lon":-122.8028177
    },
{
    "ID":"sger90atyahoo.com",
    "email":"sger90atyahoo.com",
    "name":"Bare Roots",
    "address1":"720 Willow Way",
    "address2":"Test Address Line 2",
    "state":"New York",
    "city":"Ithaca",
    "country":"United States",
    "website":"www.example.com",
    "hours":"9AM - 5PM Monday - Friday - Except Holidays",
    "phone":"011--801-000-0000",
    "zip":"14850",
    "lat":42.4525563,
    "lon":-76.5062187
    },
{
    "ID":"infoatindooreden.net",
    "email":"infoatindooreden.net",
    "name":"Soldiers of Green, SL / Sant Yerbasi",
    "address1":"9281 Michigan 36",
    "address2":"Test Address Line 2",
    "state":"Michigan",
    "city":"Whitmore Lake",
    "country":"United States",
    "website":"www.example.com",
    "hours":"9AM - 5PM Monday - Friday - Except Holidays",
    "phone":"011--801-000-0000",
    "zip":"48189",
    "lat":42.4423622,
    "lon":-83.7637945
    },
{
    "ID":"Salesatultragreenhydroponics.com",
    "email":"Salesatultragreenhydroponics.com",
    "name":"509 Garden Supply",
    "address1":"29541 W. 8 Mile Road",
    "address2":"Test Address Line 2",
    "state":"Michigan",
    "city":"Livonia",
    "country":"United States",
    "website":"www.example.com",
    "hours":"9AM - 5PM Monday - Friday - Except Holidays",
    "phone":"011--801-000-0000",
    "zip":"48152",
    "lat":42.440061,
    "lon":-83.377306
    },
{
    "ID":"bilcoindatcenturylink.net",
    "email":"bilcoindatcenturylink.net",
    "name":"The Homegrown Connection",
    "address1":"1350 Dry Creek Rd.",
    "address2":"Test Address Line 2",
    "state":"Oregon",
    "city":"Eagle Point",
    "country":"United States",
    "website":"www.example.com",
    "hours":"9AM - 5PM Monday - Friday - Except Holidays",
    "phone":"011--801-000-0000",
    "zip":"97524",
    "lat":42.397685,
    "lon":-122.764085
    },
{
    "ID":"ordersatgyostuff.com",
    "email":"ordersatgyostuff.com",
    "name":"Grow Green Montana",
    "address1":"2400 Massachusetts Ave.",
    "address2":"Test Address Line 2",
    "state":"Massachusetts",
    "city":"Cambridge",
    "country":"United States",
    "website":"www.example.com",
    "hours":"9AM - 5PM Monday - Friday - Except Holidays",
    "phone":"011--801-000-0000",
    "zip":"2140",
    "lat":42.3970597,
    "lon":-71.1302576
    },
{
    "ID":"calebhatmedia.mit.edu",
    "email":"calebhatmedia.mit.edu",
    "name":"Hydro Center",
    "address1":"20 Ames St, E15-384F",
    "address2":"Test Address Line 2",
    "state":"Massachusetts",
    "city":"Cambridge",
    "country":"United States",
    "website":"www.example.com",
    "hours":"9AM - 5PM Monday - Friday - Except Holidays",
    "phone":"011--801-000-0000",
    "zip":"2142",
    "lat":42.3607011,
    "lon":-71.0877227
    },
{
    "ID":"bbhydroatwowway.biz",
    "email":"bbhydroatwowway.biz",
    "name":"HydroDynamics International Inc.",
    "address1":"24330 Ann Arbor Trail",
    "address2":"Test Address Line 2",
    "state":"Michigan",
    "city":"Dearborn Heights",
    "country":"United States",
    "website":"www.example.com",
    "hours":"9AM - 5PM Monday - Friday - Except Holidays",
    "phone":"011--801-000-0000",
    "zip":"48127",
    "lat":42.350488,
    "lon":-83.276585
    },
{
    "ID":"andrew.serenoatgmail.com",
    "email":"andrew.serenoatgmail.com",
    "name":"Sea of Green Flagstaff",
    "address1":"12760 Mckinley Heights Dr.",
    "address2":"Test Address Line 2",
    "state":"Michigan",
    "city":"Chelsea",
    "country":"United States",
    "website":"www.example.com",
    "hours":"9AM - 5PM Monday - Friday - Except Holidays",
    "phone":"011--801-000-0000",
    "zip":"48118",
    "lat":42.342208,
    "lon":-83.981578
    },
{
    "ID":"Tomatgreenpathgardensupply.com",
    "email":"Tomatgreenpathgardensupply.com",
    "name":"Rootdown Hydroponics",
    "address1":"276 West Main Street",
    "address2":"Test Address Line 2",
    "state":"Massachusetts",
    "city":"Northborough",
    "country":"United States",
    "website":"www.example.com",
    "hours":"9AM - 5PM Monday - Friday - Except Holidays",
    "phone":"011--801-000-0000",
    "zip":"1532",
    "lat":42.309046,
    "lon":-71.658022
    },
{
    "ID":"ryanatzoocitygrowersupply.com",
    "email":"ryanatzoocitygrowersupply.com",
    "name":"Discount Hydroponics",
    "address1":"3514 S. Westnedge",
    "address2":"Test Address Line 2",
    "state":"Michigan",
    "city":"Kalamazoo",
    "country":"United States",
    "website":"www.example.com",
    "hours":"9AM - 5PM Monday - Friday - Except Holidays",
    "phone":"011--801-000-0000",
    "zip":"49008",
    "lat":42.2564357,
    "lon":-85.5898673
    },
{
    "ID":"ryanatzoocitygrowersupply.com",
    "email":"ryanatzoocitygrowersupply.com",
    "name":"American Agriculture",
    "address1":"534 Parker Ave.",
    "address2":"Test Address Line 2",
    "state":"Michigan",
    "city":"Kalamazoo",
    "country":"United States",
    "website":"www.example.com",
    "hours":"9AM - 5PM Monday - Friday - Except Holidays",
    "phone":"011--801-000-0000",
    "zip":"49008",
    "lat":42.2536123,
    "lon":-85.5903393
    },
{
    "ID":"mightygrowatgmail.com",
    "email":"mightygrowatgmail.com",
    "name":"AHL Garden Supply",
    "address1":"2418 W. Michigan Ave.",
    "address2":"Test Address Line 2",
    "state":"Michigan",
    "city":"Jackson",
    "country":"United States",
    "website":"www.example.com",
    "hours":"9AM - 5PM Monday - Friday - Except Holidays",
    "phone":"011--801-000-0000",
    "zip":"49207",
    "lat":42.250302,
    "lon":-84.443314
    },
{
    "ID":"andyatfullbloomhydroponics.net",
    "email":"andyatfullbloomhydroponics.net",
    "name":"Bubbleman",
    "address1":"415 Williamson Way",
    "address2":"Test Address Line 2",
    "state":"Oregon",
    "city":"Ashland",
    "country":"United States",
    "website":"www.example.com",
    "hours":"9AM - 5PM Monday - Friday - Except Holidays",
    "phone":"011--801-000-0000",
    "zip":"97520",
    "lat":42.2005854,
    "lon":-122.7056104
    },
{
    "ID":"Bhiers1atgmail.com",
    "email":"Bhiers1atgmail.com",
    "name":"Rosebud Magazine",
    "address1":"2305 Ashland St. C258",
    "address2":"Test Address Line 2",
    "state":"Oregon",
    "city":"Ashland",
    "country":"United States",
    "website":"www.example.com",
    "hours":"9AM - 5PM Monday - Friday - Except Holidays",
    "phone":"011--801-000-0000",
    "zip":"97520",
    "lat":42.1856642,
    "lon":-122.67095
    },
{
    "ID":"mightygrowatgmail.com",
    "email":"mightygrowatgmail.com",
    "name":"GYO",
    "address1":"9600 Grossman Road",
    "address2":"Test Address Line 2",
    "state":"Michigan",
    "city":"Manchester",
    "country":"United States",
    "website":"www.example.com",
    "hours":"9AM - 5PM Monday - Friday - Except Holidays",
    "phone":"011--801-000-0000",
    "zip":"48158",
    "lat":42.122538,
    "lon":-84.0618779
    },
{
    "ID":"info.warneratgmail.com",
    "email":"info.warneratgmail.com",
    "name":"Wholesale Garden Center",
    "address1":"273 Hanover St",
    "address2":"Test Address Line 2",
    "state":"Massachusetts",
    "city":"Hanover",
    "country":"United States",
    "website":"www.example.com",
    "hours":"9AM - 5PM Monday - Friday - Except Holidays",
    "phone":"011--801-000-0000",
    "zip":"2339",
    "lat":42.1150589,
    "lon":-70.8321322
    },
{
    "ID":"harvestmoonhydroatverizon.net",
    "email":"harvestmoonhydroatverizon.net",
    "name":"Cannatest",
    "address1":"29 Washington Street/Route 1",
    "address2":"Test Address Line 2",
    "state":"Massachusetts",
    "city":"Foxboro",
    "country":"United States",
    "website":"www.example.com",
    "hours":"9AM - 5PM Monday - Friday - Except Holidays",
    "phone":"011--801-000-0000",
    "zip":"2035",
    "lat":42.0653812,
    "lon":-71.2478251
    },
{
    "ID":"DavidPatCultivationinnovations.com",
    "email":"DavidPatCultivationinnovations.com",
    "name":"Healthy Harvest",
    "address1":"15223 S Dixie Highway",
    "address2":"Test Address Line 2",
    "state":"Michigan",
    "city":"Monroe",
    "country":"United States",
    "website":"www.example.com",
    "hours":"9AM - 5PM Monday - Friday - Except Holidays",
    "phone":"011--801-000-0000",
    "zip":"48161",
    "lat":41.8924196,
    "lon":-83.4180942
    },
{
    "ID":"melvinmaggieattds.net",
    "email":"melvinmaggieattds.net",
    "name":"Seattle's Hydro Spot",
    "address1":"12944 Cadmus Road",
    "address2":"Test Address Line 2",
    "state":"Michigan",
    "city":"Clayton",
    "country":"United States",
    "website":"www.example.com",
    "hours":"9AM - 5PM Monday - Friday - Except Holidays",
    "phone":"011--801-000-0000",
    "zip":"49235",
    "lat":41.871231,
    "lon":-84.275189
    },
{
    "ID":"Greenmattersonlineatyahoo.com",
    "email":"Greenmattersonlineatyahoo.com",
    "name":"Big Grow Hydroponics",
    "address1":"592 Wareham St.",
    "address2":"Test Address Line 2",
    "state":"Massachusetts",
    "city":"Middleboro",
    "country":"United States",
    "website":"www.example.com",
    "hours":"9AM - 5PM Monday - Friday - Except Holidays",
    "phone":"011--801-000-0000",
    "zip":"2346",
    "lat":41.8226161,
    "lon":-70.8176743
    },
{
    "ID":"MJohnsonatlushledlighting.com",
    "email":"MJohnsonatlushledlighting.com",
    "name":"Grow Gear",
    "address1":"1964 South 11th Street",
    "address2":"Test Address Line 2",
    "state":"Michigan",
    "city":"Niles",
    "country":"United States",
    "website":"www.example.com",
    "hours":"9AM - 5PM Monday - Friday - Except Holidays",
    "phone":"011--801-000-0000",
    "zip":"49120",
    "lat":41.7967626,
    "lon":-86.2484614
    },
{
    "ID":"hawk455atverizon.net",
    "email":"hawk455atverizon.net",
    "name":"Heavy Harvest Hydroponics",
    "address1":"709 Warwick Ave",
    "address2":"Test Address Line 2",
    "state":"Rhode Island",
    "city":"Warwick",
    "country":"United States",
    "website":"www.example.com",
    "hours":"9AM - 5PM Monday - Friday - Except Holidays",
    "phone":"011--801-000-0000",
    "zip":"2888",
    "lat":41.756791,
    "lon":-71.404852
    },
{
    "ID":"toledoindoorgardenatgmail.com",
    "email":"toledoindoorgardenatgmail.com",
    "name":"Super Roots Hydroponics",
    "address1":"5614 Secor Rd",
    "address2":"Test Address Line 2",
    "state":"Ohio",
    "city":"Toledo",
    "country":"United States",
    "website":"www.example.com",
    "hours":"9AM - 5PM Monday - Friday - Except Holidays",
    "phone":"011--801-000-0000",
    "zip":"43623",
    "lat":41.7174182,
    "lon":-83.6237811
    },
{
    "ID":"ogc.contactatgmail.com",
    "email":"ogc.contactatgmail.com",
    "name":"Hydro Master",
    "address1":"5215 Monroe Street Suite 10",
    "address2":"Test Address Line 2",
    "state":"Ohio",
    "city":"Toledo",
    "country":"United States",
    "website":"www.example.com",
    "hours":"9AM - 5PM Monday - Friday - Except Holidays",
    "phone":"011--801-000-0000",
    "zip":"43623",
    "lat":41.700277,
    "lon":-83.651213
    },
{
    "ID":"rortega43atgmail.com",
    "email":"rortega43atgmail.com",
    "name":"High Desert Hydroponics",
    "address1":"6802 Post Road",
    "address2":"Test Address Line 2",
    "state":"Rhode Island",
    "city":"North Kingstown",
    "country":"United States",
    "website":"www.example.com",
    "hours":"9AM - 5PM Monday - Friday - Except Holidays",
    "phone":"011--801-000-0000",
    "zip":"2852",
    "lat":41.612583,
    "lon":-71.456776
    },
{
    "ID":"Iancolandroatgmail.com",
    "email":"Iancolandroatgmail.com",
    "name":"Advanced Grow Labs",
    "address1":"467 Plans Road",
    "address2":"Test Address Line 2",
    "state":"Connecticut",
    "city":"Milford",
    "country":"United States",
    "website":"www.example.com",
    "hours":"9AM - 5PM Monday - Friday - Except Holidays",
    "phone":"011--801-000-0000",
    "zip":"6461",
    "lat":41.226667,
    "lon":-73.090615
    },
{
    "ID":"omahaatparadigmgardens.com",
    "email":"omahaatparadigmgardens.com",
    "name":"Hydroponics Connection",
    "address1":"8949 J Street Suite #5",
    "address2":"Test Address Line 2",
    "state":"Nebraska",
    "city":"Omaha",
    "country":"United States",
    "website":"www.example.com",
    "hours":"9AM - 5PM Monday - Friday - Except Holidays",
    "phone":"011--801-000-0000",
    "zip":"68127",
    "lat":41.214322,
    "lon":-96.051406
    },
{
    "ID":"moriaatnorthcoasths.com",
    "email":"moriaatnorthcoasths.com",
    "name":"GreenMile Hydroponic Garden",
    "address1":"1580 Nursery Way Suite Q",
    "address2":"Test Address Line 2",
    "state":"California",
    "city":"Mckinleyville",
    "country":"United States",
    "website":"www.example.com",
    "hours":"9AM - 5PM Monday - Friday - Except Holidays",
    "phone":"011--801-000-0000",
    "zip":"95519",
    "lat":40.9366796,
    "lon":-124.1031756
    },
{
    "ID":"jkattmanatneo.rr.com",
    "email":"jkattmanatneo.rr.com",
    "name":"Total Hydroponics Center",
    "address1":"1664 North Main Street #25",
    "address2":"Test Address Line 2",
    "state":"Ohio",
    "city":"Canton",
    "country":"United States",
    "website":"www.example.com",
    "hours":"9AM - 5PM Monday - Friday - Except Holidays",
    "phone":"011--801-000-0000",
    "zip":"44720",
    "lat":40.897207,
    "lon":-81.404998
    },
{
    "ID":"Emailatsunflowersupplies.com",
    "email":"Emailatsunflowersupplies.com",
    "name":"Harvest Moon Hydroponics Foxboro",
    "address1":"3104 Expressway Drive South",
    "address2":"Test Address Line 2",
    "state":"New York",
    "city":"Islandia",
    "country":"United States",
    "website":"www.example.com",
    "hours":"9AM - 5PM Monday - Friday - Except Holidays",
    "phone":"011--801-000-0000",
    "zip":"11749",
    "lat":40.8085064,
    "lon":-73.1811875
    },
{
    "ID":"titoatafertileworld.com",
    "email":"titoatafertileworld.com",
    "name":"Amazon FBA UK",
    "address1":"6 Fifth Street",
    "address2":"Test Address Line 2",
    "state":"California",
    "city":"Eureka",
    "country":"United States",
    "website":"www.example.com",
    "hours":"9AM - 5PM Monday - Friday - Except Holidays",
    "phone":"011--801-000-0000",
    "zip":"95501-0334",
    "lat":40.8010151,
    "lon":-124.171114
    },
{
    "ID":"danskyeathightimes.com",
    "email":"danskyeathightimes.com",
    "name":"Acre Garden Supply",
    "address1":"250 W. 57th Street, Suite 920",
    "address2":"Test Address Line 2",
    "state":"NY",
    "city":"New York",
    "country":"United States",
    "website":"www.example.com",
    "hours":"9AM - 5PM Monday - Friday - Except Holidays",
    "phone":"011--801-000-0000",
    "zip":"10107",
    "lat":40.7662723,
    "lon":-73.9823998
    },
{
    "ID":"Danathightimes.com",
    "email":"Danathightimes.com",
    "name":"Grow 4XS AU",
    "address1":"250 W. 57th Street",
    "address2":"Test Address Line 2",
    "state":"New York",
    "city":"New York",
    "country":"United States",
    "website":"www.example.com",
    "hours":"9AM - 5PM Monday - Friday - Except Holidays",
    "phone":"011--801-000-0000",
    "zip":"10107",
    "lat":40.7662723,
    "lon":-73.9823998
    },
{
    "ID":"jamesatmethodseven.com",
    "email":"jamesatmethodseven.com",
    "name":"Method Seven",
    "address1":"419 Park Ave. South Suite E",
    "address2":"Test Address Line 2",
    "state":"New York",
    "city":"New York",
    "country":"United States",
    "website":"www.example.com",
    "hours":"9AM - 5PM Monday - Friday - Except Holidays",
    "phone":"011--801-000-0000",
    "zip":"10016",
    "lat":40.7436697,
    "lon":-73.9835213
    },
{
    "ID":"barerootsreddingatgmail.com",
    "email":"barerootsreddingatgmail.com",
    "name":"Samurai Greenhouse Supply",
    "address1":"1615 E. Cypress",
    "address2":"Test Address Line 2",
    "state":"California",
    "city":"Redding",
    "country":"United States",
    "website":"www.example.com",
    "hours":"9AM - 5PM Monday - Friday - Except Holidays",
    "phone":"011--801-000-0000",
    "zip":"96002",
    "lat":40.5707552,
    "lon":-122.3409485
    },
{
    "ID":"joshchristian13atyahoo.com",
    "email":"joshchristian13atyahoo.com",
    "name":"Highland Horticultural",
    "address1":"6851 AIRPORT RD",
    "address2":"Test Address Line 2",
    "state":"California",
    "city":"Redding",
    "country":"United States",
    "website":"www.example.com",
    "hours":"9AM - 5PM Monday - Friday - Except Holidays",
    "phone":"011--801-000-0000",
    "zip":"96002-9475",
    "lat":40.486616,
    "lon":-122.292859
    },
{
    "ID":"laura.noelatymail.com",
    "email":"laura.noelatymail.com",
    "name":"LED It Grow",
    "address1":"4679 Edie Place",
    "address2":"Test Address Line 2",
    "state":"Colorado",
    "city":"Erie",
    "country":"United States",
    "website":"www.example.com",
    "hours":"9AM - 5PM Monday - Friday - Except Holidays",
    "phone":"011--801-000-0000",
    "zip":"80516",
    "lat":40.068264,
    "lon":-105.023698
    },
{
    "ID":"tommyatbhocenter.com",
    "email":"tommyatbhocenter.com",
    "name":"Green Thumb Gardening",
    "address1":"1630 N. 63rd St. Unit #5",
    "address2":"Test Address Line 2",
    "state":"Colorado",
    "city":"Boulder",
    "country":"United States",
    "website":"www.example.com",
    "hours":"9AM - 5PM Monday - Friday - Except Holidays",
    "phone":"011--801-000-0000",
    "zip":"80301",
    "lat":40.0155063,
    "lon":-105.2060061
    },
{
    "ID":"Danmetschatyahoo.com",
    "email":"Danmetschatyahoo.com",
    "name":"Green Matters Pocasset",
    "address1":"7464 Arapahoe Road",
    "address2":"Test Address Line 2",
    "state":"Colorado",
    "city":"Boulder",
    "country":"United States",
    "website":"www.example.com",
    "hours":"9AM - 5PM Monday - Friday - Except Holidays",
    "phone":"011--801-000-0000",
    "zip":"80303",
    "lat":40.0145712,
    "lon":-105.1792792
    },
{
    "ID":"tommyatbhocenter.com",
    "email":"tommyatbhocenter.com",
    "name":"How's It Growing LLC",
    "address1":"4775 Hancock Dr",
    "address2":"Test Address Line 2",
    "state":"Colorado",
    "city":"Boulder",
    "country":"United States",
    "website":"www.example.com",
    "hours":"9AM - 5PM Monday - Friday - Except Holidays",
    "phone":"011--801-000-0000",
    "zip":"80303",
    "lat":40.007978,
    "lon":-105.235589
    },
{
    "ID":"dannyatvictoryhydro.com",
    "email":"dannyatvictoryhydro.com",
    "name":"Constantly Growing",
    "address1":"1387 E. South Boulder Road Unit D",
    "address2":"Test Address Line 2",
    "state":"Colorado",
    "city":"Louisville",
    "country":"United States",
    "website":"www.example.com",
    "hours":"9AM - 5PM Monday - Friday - Except Holidays",
    "phone":"011--801-000-0000",
    "zip":"80027",
    "lat":39.9875123,
    "lon":-105.123507
    },
{
    "ID":"Josiahatvictoryhydro.com",
    "email":"Josiahatvictoryhydro.com",
    "name":"Premier Hydro",
    "address1":"1387 E. South Boulder Road Unit D",
    "address2":"Test Address Line 2",
    "state":"Colorado",
    "city":"Louisville",
    "country":"United States",
    "website":"www.example.com",
    "hours":"9AM - 5PM Monday - Friday - Except Holidays",
    "phone":"011--801-000-0000",
    "zip":"80027",
    "lat":39.9875123,
    "lon":-105.123507
    },
{
    "ID":"kyleatkyle.com",
    "email":"kyleatkyle.com",
    "name":"West Coast Avengers",
    "address1":"980 Miami Way",
    "address2":"Test Address Line 2",
    "state":"Colorado",
    "city":"Boulder",
    "country":"United States",
    "website":"www.example.com",
    "hours":"9AM - 5PM Monday - Friday - Except Holidays",
    "phone":"011--801-000-0000",
    "zip":"80305",
    "lat":39.979841,
    "lon":-105.254641
    },
{
    "ID":"broubieatbravo-lighting.com",
    "email":"broubieatbravo-lighting.com",
    "name":"Taproot Hydroponics",
    "address1":"1751 Panarama Point Unit E",
    "address2":"Test Address Line 2",
    "state":"Colorado",
    "city":"Lafayette",
    "country":"United States",
    "website":"www.example.com",
    "hours":"9AM - 5PM Monday - Friday - Except Holidays",
    "phone":"011--801-000-0000",
    "zip":"80026",
    "lat":39.9788412,
    "lon":-105.0694607
    },
{
    "ID":"Dealerservice+amazonfbaatmethodseven.com",
    "email":"Dealerservice+amazonfbaatmethodseven.com",
    "name":"The Hydro Closet",
    "address1":"5255 Anson Blvd",
    "address2":"Test Address Line 2",
    "state":"Indiana",
    "city":"Whitestown",
    "country":"United States",
    "website":"www.example.com",
    "hours":"9AM - 5PM Monday - Friday - Except Holidays",
    "phone":"011--801-000-0000",
    "zip":"46075",
    "lat":39.9755527,
    "lon":-86.3831621
    },
{
    "ID":"pauljosephs2323atgmail.com",
    "email":"pauljosephs2323atgmail.com",
    "name":"Vital Landscaping",
    "address1":"1440 Judson Dr.",
    "address2":"Test Address Line 2",
    "state":"Colorado",
    "city":"Boulder",
    "country":"United States",
    "website":"www.example.com",
    "hours":"9AM - 5PM Monday - Friday - Except Holidays",
    "phone":"011--801-000-0000",
    "zip":"80305",
    "lat":39.974117,
    "lon":-105.257186
    },
{
    "ID":"salesatenviroled.us",
    "email":"salesatenviroled.us",
    "name":"The Hydro Shack",
    "address1":"7581W. 103rd Ave.,Suite 200",
    "address2":"Test Address Line 2",
    "state":"Colorado",
    "city":"Westminster",
    "country":"United States",
    "website":"www.example.com",
    "hours":"9AM - 5PM Monday - Friday - Except Holidays",
    "phone":"011--801-000-0000",
    "zip":"80021",
    "lat":39.883896,
    "lon":-105.080251
    },
{
    "ID":"clintatthebigtomato.com",
    "email":"clintatthebigtomato.com",
    "name":"New Age Gardens",
    "address1":"8216 Swadley Ct.",
    "address2":"Test Address Line 2",
    "state":"Colorado",
    "city":"Arvada",
    "country":"United States",
    "website":"www.example.com",
    "hours":"9AM - 5PM Monday - Friday - Except Holidays",
    "phone":"011--801-000-0000",
    "zip":"80005",
    "lat":39.846153,
    "lon":-105.131491
    },
{
    "ID":"shaneatwaytogrow.net",
    "email":"shaneatwaytogrow.net",
    "name":"Bardo Enterprises Pty Ltd AU",
    "address1":"8101 Raleigh Place",
    "address2":"Test Address Line 2",
    "state":"Colorado",
    "city":"Westminster",
    "country":"United States",
    "website":"www.example.com",
    "hours":"9AM - 5PM Monday - Friday - Except Holidays",
    "phone":"011--801-000-0000",
    "zip":"80031",
    "lat":39.8439539,
    "lon":-105.045228
    },
{
    "ID":"hiltonpjonesatgmail.com",
    "email":"hiltonpjonesatgmail.com",
    "name":"Shamrock Supply",
    "address1":"6731 North Federal Blvd.",
    "address2":"Test Address Line 2",
    "state":"Colorado",
    "city":"Denver",
    "country":"United States",
    "website":"www.example.com",
    "hours":"9AM - 5PM Monday - Friday - Except Holidays",
    "phone":"011--801-000-0000",
    "zip":"80221",
    "lat":39.8188741,
    "lon":-105.0251542
    },
{
    "ID":"eomcfloydoatyahoo.com",
    "email":"eomcfloydoatyahoo.com",
    "name":"Colorado Bud Blog",
    "address1":"4652 Gibralter St.",
    "address2":"Test Address Line 2",
    "state":"Colorado",
    "city":"Denver",
    "country":"United States",
    "website":"www.example.com",
    "hours":"9AM - 5PM Monday - Friday - Except Holidays",
    "phone":"011--801-000-0000",
    "zip":"80249",
    "lat":39.7956911,
    "lon":-104.7572089
    },
{
    "ID":"JustinatmaximumGrow.com",
    "email":"JustinatmaximumGrow.com",
    "name":"Powered By Awesome",
    "address1":"22 South Sheridan",
    "address2":"Test Address Line 2",
    "state":"Indiana",
    "city":"Indianapolis",
    "country":"United States",
    "website":"www.example.com",
    "hours":"9AM - 5PM Monday - Friday - Except Holidays",
    "phone":"011--801-000-0000",
    "zip":"46219",
    "lat":39.770703,
    "lon":-86.060443
    },
{
    "ID":"Cultivatecoloradoatgmail.com",
    "email":"Cultivatecoloradoatgmail.com",
    "name":"Sunlight Supply",
    "address1":"7614 West 38th Ave #B111",
    "address2":"Test Address Line 2",
    "state":"Colorado",
    "city":"Wheat Ridge",
    "country":"United States",
    "website":"www.example.com",
    "hours":"9AM - 5PM Monday - Friday - Except Holidays",
    "phone":"011--801-000-0000",
    "zip":"80033",
    "lat":39.7693604,
    "lon":-105.081707
    },
{
    "ID":"sagemastaatgmail.com",
    "email":"sagemastaatgmail.com",
    "name":"Roots Garden Supply",
    "address1":"3354 Larimer St.",
    "address2":"Test Address Line 2",
    "state":"Colorado",
    "city":"Denver",
    "country":"United States",
    "website":"www.example.com",
    "hours":"9AM - 5PM Monday - Friday - Except Holidays",
    "phone":"011--801-000-0000",
    "zip":"80205",
    "lat":39.765577,
    "lon":-104.97578
    },
{
    "ID":"milehighsocialmediaatgmail.com",
    "email":"milehighsocialmediaatgmail.com",
    "name":"Method Seven Representative",
    "address1":"1705 Federal Blvd",
    "address2":"Test Address Line 2",
    "state":"Colorado",
    "city":"Denver",
    "country":"United States",
    "website":"www.example.com",
    "hours":"9AM - 5PM Monday - Friday - Except Holidays",
    "phone":"011--801-000-0000",
    "zip":"80204",
    "lat":39.7442693,
    "lon":-105.0256205
    },
{
    "ID":"Thegrowstoreicmatgmail.com",
    "email":"Thegrowstoreicmatgmail.com",
    "name":"Advanced Hydroponic Garden",
    "address1":"8644 W. Colfax Ave.",
    "address2":"Test Address Line 2",
    "state":"Colorado",
    "city":"Lakewood",
    "country":"United States",
    "website":"www.example.com",
    "hours":"9AM - 5PM Monday - Friday - Except Holidays",
    "phone":"011--801-000-0000",
    "zip":"80215",
    "lat":39.7400036,
    "lon":-105.0941521
    },
{
    "ID":"joseatcostplushydro.com",
    "email":"joseatcostplushydro.com",
    "name":"Hometown Hydroponics",
    "address1":"2530 West Barberry Place",
    "address2":"Test Address Line 2",
    "state":"Colorado",
    "city":"Denver",
    "country":"United States",
    "website":"www.example.com",
    "hours":"9AM - 5PM Monday - Friday - Except Holidays",
    "phone":"011--801-000-0000",
    "zip":"80204",
    "lat":39.7302861,
    "lon":-105.0185081
    },
{
    "ID":"jmcohen220athotmail.com",
    "email":"jmcohen220athotmail.com",
    "name":"Integgrity Insurance",
    "address1":"12 Broadway #220",
    "address2":"Test Address Line 2",
    "state":"Colorado",
    "city":"Denver",
    "country":"United States",
    "website":"www.example.com",
    "hours":"9AM - 5PM Monday - Friday - Except Holidays",
    "phone":"011--801-000-0000",
    "zip":"80203",
    "lat":39.716915,
    "lon":-104.987119
    },
{
    "ID":"jmcohen220athotmail.com",
    "email":"jmcohen220athotmail.com",
    "name":"Medicineman",
    "address1":"601 S Broadway Suite I",
    "address2":"Test Address Line 2",
    "state":"Colorado",
    "city":"Denver",
    "country":"United States",
    "website":"www.example.com",
    "hours":"9AM - 5PM Monday - Friday - Except Holidays",
    "phone":"011--801-000-0000",
    "zip":"80209",
    "lat":39.7057586,
    "lon":-104.9876006
    },
{
    "ID":"Ryanatthecliniccolorado.com",
    "email":"Ryanatthecliniccolorado.com",
    "name":"Trichome Tech",
    "address1":"601 S. Broadway Suite I",
    "address2":"Test Address Line 2",
    "state":"Colorado",
    "city":"Denver",
    "country":"United States",
    "website":"www.example.com",
    "hours":"9AM - 5PM Monday - Friday - Except Holidays",
    "phone":"011--801-000-0000",
    "zip":"80209",
    "lat":39.7057586,
    "lon":-104.9876006
    },
{
    "ID":"cultivate.northatgmail.com",
    "email":"cultivate.northatgmail.com",
    "name":"Mountain Feed and Farm Supply",
    "address1":"666 Buchtell Blvd.",
    "address2":"Test Address Line 2",
    "state":"Colorado",
    "city":"Denver",
    "country":"United States",
    "website":"www.example.com",
    "hours":"9AM - 5PM Monday - Friday - Except Holidays",
    "phone":"011--801-000-0000",
    "zip":"80210",
    "lat":39.6935667,
    "lon":-104.9793551
    },
{
    "ID":"carnsatstudent.cccs.edu",
    "email":"carnsatstudent.cccs.edu",
    "name":"The Rose Girls Florist & Hydroponic Supplies",
    "address1":"2841 S. Lansing Way",
    "address2":"Test Address Line 2",
    "state":"Colorado",
    "city":"Aurora",
    "country":"United States",
    "website":"www.example.com",
    "hours":"9AM - 5PM Monday - Friday - Except Holidays",
    "phone":"011--801-000-0000",
    "zip":"80014",
    "lat":39.665286,
    "lon":-104.857583
    },
{
    "ID":"Thegrowstoreicmatgmail.com",
    "email":"Thegrowstoreicmatgmail.com",
    "name":"Alternative Herbal Health Services",
    "address1":"5050 S. Federal Blvd #31",
    "address2":"Test Address Line 2",
    "state":"Colorado",
    "city":"Englewood",
    "country":"United States",
    "website":"www.example.com",
    "hours":"9AM - 5PM Monday - Friday - Except Holidays",
    "phone":"011--801-000-0000",
    "zip":"80110",
    "lat":39.6247604,
    "lon":-105.0237568
    },
{
    "ID":"jlancasteratbwgs.com",
    "email":"jlancasteratbwgs.com",
    "name":"Heliospectra AB",
    "address1":"1400 Hancel Parkway",
    "address2":"Test Address Line 2",
    "state":"Indiana",
    "city":"Mooresville",
    "country":"United States",
    "website":"www.example.com",
    "hours":"9AM - 5PM Monday - Friday - Except Holidays",
    "phone":"011--801-000-0000",
    "zip":"46158",
    "lat":39.5714358,
    "lon":-86.3810279
    },
{
    "ID":"scottembreeatmac.com",
    "email":"scottembreeatmac.com",
    "name":"LED it Grow",
    "address1":"9682 Beacon Hill Ct.",
    "address2":"Test Address Line 2",
    "state":"Colorado",
    "city":"Highlands Ranch",
    "country":"United States",
    "website":"www.example.com",
    "hours":"9AM - 5PM Monday - Friday - Except Holidays",
    "phone":"011--801-000-0000",
    "zip":"80126",
    "lat":39.53996,
    "lon":-104.976802
    },
{
    "ID":"lindsayathappygrowlucky.com",
    "email":"lindsayathappygrowlucky.com",
    "name":"DNA Genetics",
    "address1":"11973 Springs Road #100",
    "address2":"Test Address Line 2",
    "state":"Colorado",
    "city":"Conifer",
    "country":"United States",
    "website":"www.example.com",
    "hours":"9AM - 5PM Monday - Friday - Except Holidays",
    "phone":"011--801-000-0000",
    "zip":"80433",
    "lat":39.5009632,
    "lon":-105.3254342
    },
{
    "ID":"Headlandsgardensuppyatgmail.com",
    "email":"Headlandsgardensuppyatgmail.com",
    "name":"Northern Roots Grow Supply",
    "address1":"630 N Franklin St.",
    "address2":"Test Address Line 2",
    "state":"California",
    "city":"Fort Bragg",
    "country":"United States",
    "website":"www.example.com",
    "hours":"9AM - 5PM Monday - Friday - Except Holidays",
    "phone":"011--801-000-0000",
    "zip":"95437",
    "lat":39.448515,
    "lon":-123.80412
    },
{
    "ID":"Jennieathomegrowngardeningsolutions.com",
    "email":"Jennieathomegrowngardeningsolutions.com",
    "name":"Highland Grow and Flow AU",
    "address1":"16935 South Elk Creek Road",
    "address2":"Test Address Line 2",
    "state":"Colorado",
    "city":"Pine",
    "country":"United States",
    "website":"www.example.com",
    "hours":"9AM - 5PM Monday - Friday - Except Holidays",
    "phone":"011--801-000-0000",
    "zip":"80470",
    "lat":39.408951,
    "lon":-105.323325
    },
{
    "ID":"Everestgardensupply1atme.com",
    "email":"Everestgardensupply1atme.com",
    "name":"The Hydro Store",
    "address1":"260 Margie Drive",
    "address2":"Test Address Line 2",
    "state":"California",
    "city":"Willits",
    "country":"United States",
    "website":"www.example.com",
    "hours":"9AM - 5PM Monday - Friday - Except Holidays",
    "phone":"011--801-000-0000",
    "zip":"95490",
    "lat":39.3859942,
    "lon":-123.343609
    },
{
    "ID":"jeffatmethodseven.com",
    "email":"jeffatmethodseven.com",
    "name":"Marijuana Venture Magazine",
    "address1":"14370 Muscrove Farm Ct",
    "address2":"Test Address Line 2",
    "state":"Michigan",
    "city":"Glenwood",
    "country":"United States",
    "website":"www.example.com",
    "hours":"9AM - 5PM Monday - Friday - Except Holidays",
    "phone":"011--801-000-0000",
    "zip":"21738",
    "lat":39.2791997,
    "lon":-77.02766
    },
{
    "ID":"mendogreenhouseatgmail.com",
    "email":"mendogreenhouseatgmail.com",
    "name":"Growin' Crazy",
    "address1":"960 E. School Way",
    "address2":"Test Address Line 2",
    "state":"California",
    "city":"Redwood Valley",
    "country":"United States",
    "website":"www.example.com",
    "hours":"9AM - 5PM Monday - Friday - Except Holidays",
    "phone":"011--801-000-0000",
    "zip":"95470",
    "lat":39.265711,
    "lon":-123.205884
    },
{
    "ID":"mendogreenhouseatgmail.com",
    "email":"mendogreenhouseatgmail.com",
    "name":"Hydro 101",
    "address1":"P.O. Box 764",
    "address2":"Test Address Line 2",
    "state":"California",
    "city":"Redwood Valley",
    "country":"United States",
    "website":"www.example.com",
    "hours":"9AM - 5PM Monday - Friday - Except Holidays",
    "phone":"011--801-000-0000",
    "zip":"95470",
    "lat":39.2652491,
    "lon":-123.2041429
    },
{
    "ID":"hydromaidenatsbcglobal.net",
    "email":"hydromaidenatsbcglobal.net",
    "name":"Second Sun LLC",
    "address1":"12506 Loma Rica Drive",
    "address2":"Test Address Line 2",
    "state":"California",
    "city":"Grass Valley",
    "country":"United States",
    "website":"www.example.com",
    "hours":"9AM - 5PM Monday - Friday - Except Holidays",
    "phone":"011--801-000-0000",
    "zip":"95945",
    "lat":39.2215976,
    "lon":-121.0117884
    },
{
    "ID":"Purchasingathometownhydroponics.com",
    "email":"Purchasingathometownhydroponics.com",
    "name":"Access Hydroponic",
    "address1":"800 S Auburn St",
    "address2":"Test Address Line 2",
    "state":"California",
    "city":"Grass Valley",
    "country":"United States",
    "website":"www.example.com",
    "hours":"9AM - 5PM Monday - Friday - Except Holidays",
    "phone":"011--801-000-0000",
    "zip":"95945",
    "lat":39.2013533,
    "lon":-121.0599403
    },
{
    "ID":"gjindoorgardeneratgmail.com",
    "email":"gjindoorgardeneratgmail.com",
    "name":"Greenhouse Tech",
    "address1":"3225 I-70 Business Loop A10",
    "address2":"Test Address Line 2",
    "state":"Colorado",
    "city":"Clifton",
    "country":"United States",
    "website":"www.example.com",
    "hours":"9AM - 5PM Monday - Friday - Except Holidays",
    "phone":"011--801-000-0000",
    "zip":"81520",
    "lat":39.0905153,
    "lon":-108.4547488
    },
{
    "ID":"infoatmdhydro.com",
    "email":"infoatmdhydro.com",
    "name":"American Ave. Hydroponics",
    "address1":"12130 Nebel Street",
    "address2":"Test Address Line 2",
    "state":"Maryland",
    "city":"North Bethesda",
    "country":"United States",
    "website":"www.example.com",
    "hours":"9AM - 5PM Monday - Friday - Except Holidays",
    "phone":"011--801-000-0000",
    "zip":"20723",
    "lat":39.051998,
    "lon":-77.1102951
    },
{
    "ID":"salesathydroponics-depot.com",
    "email":"salesathydroponics-depot.com",
    "name":"Hydrobuilder.com",
    "address1":"3266 Centennial Blvd",
    "address2":"Test Address Line 2",
    "state":"Colorado",
    "city":"Colorado Springs",
    "country":"United States",
    "website":"www.example.com",
    "hours":"9AM - 5PM Monday - Friday - Except Holidays",
    "phone":"011--801-000-0000",
    "zip":"80907",
    "lat":38.8771311,
    "lon":-104.8470424
    },
{
    "ID":"Greenhousetechatq.com",
    "email":"Greenhousetechatq.com",
    "name":"Southside Garden Supply",
    "address1":"917 East Fillmore Street",
    "address2":"Test Address Line 2",
    "state":"Colorado",
    "city":"Colorado Springs",
    "country":"United States",
    "website":"www.example.com",
    "hours":"9AM - 5PM Monday - Friday - Except Holidays",
    "phone":"011--801-000-0000",
    "zip":"80907",
    "lat":38.8737496,
    "lon":-104.8093921
    },
{
    "ID":"Angieconsultingatyahoo.com",
    "email":"Angieconsultingatyahoo.com",
    "name":"The Harvest Company",
    "address1":"422 S. 8th St.",
    "address2":"Test Address Line 2",
    "state":"Colorado",
    "city":"Colorado Springs",
    "country":"United States",
    "website":"www.example.com",
    "hours":"9AM - 5PM Monday - Friday - Except Holidays",
    "phone":"011--801-000-0000",
    "zip":"80905",
    "lat":38.8277247,
    "lon":-104.8407696
    },
{
    "ID":"kbjlkeenanatcomcast.net",
    "email":"kbjlkeenanatcomcast.net",
    "name":"Grow Guru Horticulture (Pty) South Africa",
    "address1":"1109 South Tejon Street",
    "address2":"Test Address Line 2",
    "state":"Colorado",
    "city":"Colorado Springs",
    "country":"United States",
    "website":"www.example.com",
    "hours":"9AM - 5PM Monday - Friday - Except Holidays",
    "phone":"011--801-000-0000",
    "zip":"80903",
    "lat":38.8180556,
    "lon":-104.8240337
    },
{
    "ID":"mgftwoatyahoo.com",
    "email":"mgftwoatyahoo.com",
    "name":"San Francisco Garden Supply",
    "address1":"4447 Granite Drive",
    "address2":"Test Address Line 2",
    "state":"California",
    "city":"Rocklin",
    "country":"United States",
    "website":"www.example.com",
    "hours":"9AM - 5PM Monday - Friday - Except Holidays",
    "phone":"011--801-000-0000",
    "zip":"95677",
    "lat":38.7945308,
    "lon":-121.2172986
    },
{
    "ID":"growsuppliesatyahoo.com",
    "email":"growsuppliesatyahoo.com",
    "name":"Black Dog LED",
    "address1":"4633 Freeman Hill Dr.",
    "address2":"Test Address Line 2",
    "state":"California",
    "city":"Placerville",
    "country":"United States",
    "website":"www.example.com",
    "hours":"9AM - 5PM Monday - Friday - Except Holidays",
    "phone":"011--801-000-0000",
    "zip":"95667",
    "lat":38.6971672,
    "lon":-120.8444571
    },
{
    "ID":"brookeatplantitearth.com",
    "email":"brookeatplantitearth.com",
    "name":"D&S Garden Supplies",
    "address1":"3200 Arden Ridge",
    "address2":"Test Address Line 2",
    "state":"California",
    "city":"Sacramento",
    "country":"United States",
    "website":"www.example.com",
    "hours":"9AM - 5PM Monday - Friday - Except Holidays",
    "phone":"011--801-000-0000",
    "zip":"95864",
    "lat":38.594621,
    "lon":-121.3899457
    },
{
    "ID":"mikedatthegrowbiz.com",
    "email":"mikedatthegrowbiz.com",
    "name":"GrandAir Aviation",
    "address1":"3127 Fite Circle",
    "address2":"Test Address Line 2",
    "state":"California",
    "city":"Sacramento",
    "country":"United States",
    "website":"www.example.com",
    "hours":"9AM - 5PM Monday - Friday - Except Holidays",
    "phone":"011--801-000-0000",
    "zip":"95827",
    "lat":38.572596,
    "lon":-121.325366
    },
{
    "ID":"brad.miaatgmail.com",
    "email":"brad.miaatgmail.com",
    "name":"Green in the Black",
    "address1":"641 Bowen Circle",
    "address2":"Test Address Line 2",
    "state":"Utah",
    "city":"Moab",
    "country":"United States",
    "website":"www.example.com",
    "hours":"9AM - 5PM Monday - Friday - Except Holidays",
    "phone":"011--801-000-0000",
    "zip":"84532",
    "lat":38.568055,
    "lon":-109.538307
    },
{
    "ID":"lynatgardenspout.com",
    "email":"lynatgardenspout.com",
    "name":"Edens Hydro Gardening Store",
    "address1":"1236 Briggs Avenue",
    "address2":"Test Address Line 2",
    "state":"California",
    "city":"Santa Rosa",
    "country":"United States",
    "website":"www.example.com",
    "hours":"9AM - 5PM Monday - Friday - Except Holidays",
    "phone":"011--801-000-0000",
    "zip":"95401",
    "lat":38.449527,
    "lon":-122.728545
    },
{
    "ID":"houstonsmothermonathotmail.com",
    "email":"houstonsmothermonathotmail.com",
    "name":"Oasis Hydroponics Inc",
    "address1":"992 Stanislaus Way",
    "address2":"Test Address Line 2",
    "state":"California",
    "city":"Santa Rosa",
    "country":"United States",
    "website":"www.example.com",
    "hours":"9AM - 5PM Monday - Friday - Except Holidays",
    "phone":"011--801-000-0000",
    "zip":"95401",
    "lat":38.441896,
    "lon":-122.758881
    },
{
    "ID":"Everestgardensupply1atme.com",
    "email":"Everestgardensupply1atme.com",
    "name":"Method Seven",
    "address1":"P.O. Box 6006",
    "address2":"Test Address Line 2",
    "state":"California",
    "city":"Santa Rosa",
    "country":"United States",
    "website":"www.example.com",
    "hours":"9AM - 5PM Monday - Friday - Except Holidays",
    "phone":"011--801-000-0000",
    "zip":"95406",
    "lat":38.44,
    "lon":-122.71
    },
{
    "ID":"chadatthegrowbiz.com",
    "email":"chadatthegrowbiz.com",
    "name":"J & K Hydroponics AU",
    "address1":"6731 Sebastopol Ave.",
    "address2":"Test Address Line 2",
    "state":"California",
    "city":"Sebastopol",
    "country":"United States",
    "website":"www.example.com",
    "hours":"9AM - 5PM Monday - Friday - Except Holidays",
    "phone":"011--801-000-0000",
    "zip":"95472",
    "lat":38.4026186,
    "lon":-122.8192157
    },
{
    "ID":"Donatsrhydro.com",
    "email":"Donatsrhydro.com",
    "name":"Hydrodynamics International, Inc. Marketing",
    "address1":"4180 S. Moorland Ave.",
    "address2":"Test Address Line 2",
    "state":"California",
    "city":"Santa Rosa",
    "country":"United States",
    "website":"www.example.com",
    "hours":"9AM - 5PM Monday - Friday - Except Holidays",
    "phone":"011--801-000-0000",
    "zip":"95407",
    "lat":38.3769721,
    "lon":-122.7173099
    },
{
    "ID":"kfoudyatgmail.com",
    "email":"kfoudyatgmail.com",
    "name":"House of Hydroponics",
    "address1":"55 Enterprise Court Unit 2",
    "address2":"Test Address Line 2",
    "state":"California",
    "city":"Napa",
    "country":"United States",
    "website":"www.example.com",
    "hours":"9AM - 5PM Monday - Friday - Except Holidays",
    "phone":"011--801-000-0000",
    "zip":"94558",
    "lat":38.260867,
    "lon":-122.27331
    },
{
    "ID":"nwgardensupplyatgmail.com",
    "email":"nwgardensupplyatgmail.com",
    "name":"One Love Garden Supply",
    "address1":"9100 E Marginal Way S",
    "address2":"Test Address Line 2",
    "state":"Washington",
    "city":"Seattle",
    "country":"United States",
    "website":"www.example.com",
    "hours":"9AM - 5PM Monday - Friday - Except Holidays",
    "phone":"011--801-000-0000",
    "zip":"98108",
    "lat":38.18979,
    "lon":-122.141821
    },
{
    "ID":"K.Trichometechnologiesatgmail.com",
    "email":"K.Trichometechnologiesatgmail.com",
    "name":"Chlorophyll",
    "address1":"646 Henry St.",
    "address2":"Test Address Line 2",
    "state":"California",
    "city":"Vallejo",
    "country":"United States",
    "website":"www.example.com",
    "hours":"9AM - 5PM Monday - Friday - Except Holidays",
    "phone":"011--801-000-0000",
    "zip":"94591",
    "lat":38.112021,
    "lon":-122.220362
    },
{
    "ID":"Adamatmotherlodehydroponics.com",
    "email":"Adamatmotherlodehydroponics.com",
    "name":"Willow's Garden Supply",
    "address1":"795 W Stockton Road",
    "address2":"Test Address Line 2",
    "state":"California",
    "city":"Sonora",
    "country":"United States",
    "website":"www.example.com",
    "hours":"9AM - 5PM Monday - Friday - Except Holidays",
    "phone":"011--801-000-0000",
    "zip":"95370",
    "lat":37.9770091,
    "lon":-120.3914031
    },
{
    "ID":"elizabethbiddlecomeatgmail.com",
    "email":"elizabethbiddlecomeatgmail.com",
    "name":"Method Seven Marketing & Trade Shows",
    "address1":"1360 s 49th",
    "address2":"Test Address Line 2",
    "state":"California",
    "city":"richmond",
    "country":"United States",
    "website":"www.example.com",
    "hours":"9AM - 5PM Monday - Friday - Except Holidays",
    "phone":"011--801-000-0000",
    "zip":"94804",
    "lat":37.912935,
    "lon":-122.3282498
    },
{
    "ID":"customerserviceatmethodseven.com",
    "email":"customerserviceatmethodseven.com",
    "name":"Hydroponics 4 Less",
    "address1":"1606 Milvia Street",
    "address2":"Test Address Line 2",
    "state":"California",
    "city":"Berkeley",
    "country":"United States",
    "website":"www.example.com",
    "hours":"9AM - 5PM Monday - Friday - Except Holidays",
    "phone":"011--801-000-0000",
    "zip":"94709",
    "lat":37.8775113,
    "lon":-122.2713441
    },
{
    "ID":"hempstoreatpatientidcenter.org",
    "email":"hempstoreatpatientidcenter.org",
    "name":"Grassroots Pharm, Inc.",
    "address1":"P.O. Box 70401",
    "address2":"Test Address Line 2",
    "state":"California",
    "city":"Oakland",
    "country":"United States",
    "website":"www.example.com",
    "hours":"9AM - 5PM Monday - Friday - Except Holidays",
    "phone":"011--801-000-0000",
    "zip":"94612",
    "lat":37.8113159,
    "lon":-122.2682245
    },
{
    "ID":"hempstoreatpatientidcenter.org",
    "email":"hempstoreatpatientidcenter.org",
    "name":"Grassroots Pharm, Inc.",
    "address1":"1733 Broadway",
    "address2":"Test Address Line 2",
    "state":"California",
    "city":"Oakland",
    "country":"United States",
    "website":"www.example.com",
    "hours":"9AM - 5PM Monday - Friday - Except Holidays",
    "phone":"011--801-000-0000",
    "zip":"94612",
    "lat":37.8072819,
    "lon":-122.2696211
    },
{
    "ID":"brookeatplantitearth.com",
    "email":"brookeatplantitearth.com",
    "name":"Method Seven",
    "address1":"1 Dorman Ave.",
    "address2":"Test Address Line 2",
    "state":"California",
    "city":"San Francisco",
    "country":"United States",
    "website":"www.example.com",
    "hours":"9AM - 5PM Monday - Friday - Except Holidays",
    "phone":"011--801-000-0000",
    "zip":"94124",
    "lat":37.7398669,
    "lon":-122.4014368
    },
{
    "ID":"barbackflowataol.com",
    "email":"barbackflowataol.com",
    "name":"NorCal HydroGardens & Organics",
    "address1":"P.O. Box 920",
    "address2":"Test Address Line 2",
    "state":"California",
    "city":"San Leandro",
    "country":"United States",
    "website":"www.example.com",
    "hours":"9AM - 5PM Monday - Friday - Except Holidays",
    "phone":"011--801-000-0000",
    "zip":"94577",
    "lat":37.7199247,
    "lon":-122.1689284
    },
{
    "ID":"gddmc5ataol.com",
    "email":"gddmc5ataol.com",
    "name":"Palm Springs Hydroponics and Organics",
    "address1":"PO Box 86",
    "address2":"Test Address Line 2",
    "state":"Colorado",
    "city":"Rico",
    "country":"United States",
    "website":"www.example.com",
    "hours":"9AM - 5PM Monday - Friday - Except Holidays",
    "phone":"011--801-000-0000",
    "zip":"81332",
    "lat":37.6927729,
    "lon":-108.0303502
    },
{
    "ID":"DBC.INC88atyahoo.com",
    "email":"DBC.INC88atyahoo.com",
    "name":"Garden Wise",
    "address1":"5445 Nyland",
    "address2":"Test Address Line 2",
    "state":"California",
    "city":"Union City",
    "country":"United States",
    "website":"www.example.com",
    "hours":"9AM - 5PM Monday - Friday - Except Holidays",
    "phone":"011--801-000-0000",
    "zip":"94587",
    "lat":37.5952304,
    "lon":-122.043969
    },
{
    "ID":"wcavengratgmail.com",
    "email":"wcavengratgmail.com",
    "name":"Victory Hydro Gardens",
    "address1":"PO Box 6427",
    "address2":"Test Address Line 2",
    "state":"California",
    "city":"San Mateo",
    "country":"United States",
    "website":"www.example.com",
    "hours":"9AM - 5PM Monday - Friday - Except Holidays",
    "phone":"011--801-000-0000",
    "zip":"94403",
    "lat":37.5349925,
    "lon":-122.3050823
    },
{
    "ID":"mitch.sadlaratgmail.com",
    "email":"mitch.sadlaratgmail.com",
    "name":"Flint DIgital",
    "address1":"1515 Amblewood Drive",
    "address2":"Test Address Line 2",
    "state":"Missouri",
    "city":"Cape Girardeau",
    "country":"United States",
    "website":"www.example.com",
    "hours":"9AM - 5PM Monday - Friday - Except Holidays",
    "phone":"011--801-000-0000",
    "zip":"63701",
    "lat":37.335097,
    "lon":-89.54061
    },
{
    "ID":"DHLathushmail.com",
    "email":"DHLathushmail.com",
    "name":"Jim's Flowers II DBA - Northern Lights H.G.S",
    "address1":"99 Clear Creek Loop",
    "address2":"Test Address Line 2",
    "state":"Colorado",
    "city":"Durango",
    "country":"United States",
    "website":"www.example.com",
    "hours":"9AM - 5PM Monday - Friday - Except Holidays",
    "phone":"011--801-000-0000",
    "zip":"81301",
    "lat":37.313882,
    "lon":-107.782263
    },
{
    "ID":"Andreaatmethodseven.com",
    "email":"Andreaatmethodseven.com",
    "name":"Bad Apple Arts",
    "address1":"2851 E Research Park Drive",
    "address2":"Test Address Line 2",
    "state":"California",
    "city":"Soquel",
    "country":"United States",
    "website":"www.example.com",
    "hours":"9AM - 5PM Monday - Friday - Except Holidays",
    "phone":"011--801-000-0000",
    "zip":"95073",
    "lat":36.9857,
    "lon":-121.968518
    },
{
    "ID":"MatthewChanaatgmail.com",
    "email":"MatthewChanaatgmail.com",
    "name":"Botani Garden",
    "address1":"2851 E Research Park Drive",
    "address2":"Test Address Line 2",
    "state":"California",
    "city":"Soquel",
    "country":"United States",
    "website":"www.example.com",
    "hours":"9AM - 5PM Monday - Friday - Except Holidays",
    "phone":"011--801-000-0000",
    "zip":"95073",
    "lat":36.9857,
    "lon":-121.968518
    },
{
    "ID":"jamesatmethodseven.com",
    "email":"jamesatmethodseven.com",
    "name":"Brew and Grow / Alternative Garden Supply",
    "address1":"2851 E Research Park Dr.",
    "address2":"Test Address Line 2",
    "state":"California",
    "city":"Soquel",
    "country":"United States",
    "website":"www.example.com",
    "hours":"9AM - 5PM Monday - Friday - Except Holidays",
    "phone":"011--801-000-0000",
    "zip":"95073",
    "lat":36.9857,
    "lon":-121.968518
    },
{
    "ID":"dealerserviceatmethodseven.com",
    "email":"dealerserviceatmethodseven.com",
    "name":"Grace's Hydro-Organic Garden Center",
    "address1":"2851 E Research Park Dr",
    "address2":"Test Address Line 2",
    "state":"California",
    "city":"Soquel",
    "country":"United States",
    "website":"www.example.com",
    "hours":"9AM - 5PM Monday - Friday - Except Holidays",
    "phone":"011--801-000-0000",
    "zip":"95073",
    "lat":36.9857,
    "lon":-121.968518
    },
{
    "ID":"Billatmethodseven.com",
    "email":"Billatmethodseven.com",
    "name":"Method Seven",
    "address1":"2851 Research Park Dr. Unit E",
    "address2":"Test Address Line 2",
    "state":"California",
    "city":"Soquel",
    "country":"United States",
    "website":"www.example.com",
    "hours":"9AM - 5PM Monday - Friday - Except Holidays",
    "phone":"011--801-000-0000",
    "zip":"95073",
    "lat":36.9857,
    "lon":-121.968518
    },
{
    "ID":"Mr.Cashatcash.com",
    "email":"Mr.Cashatcash.com",
    "name":"The Hydro Source",
    "address1":"2851 E Research Park Drive Suite E",
    "address2":"Test Address Line 2",
    "state":"California",
    "city":"Soquel",
    "country":"United States",
    "website":"www.example.com",
    "hours":"9AM - 5PM Monday - Friday - Except Holidays",
    "phone":"011--801-000-0000",
    "zip":"95073",
    "lat":36.9857,
    "lon":-121.968518
    },
{
    "ID":"Barryatmethodseven.com",
    "email":"Barryatmethodseven.com",
    "name":"Urban Hydroponics AU",
    "address1":"2851 E Research Park Drive",
    "address2":"Test Address Line 2",
    "state":"California",
    "city":"Soquel",
    "country":"United States",
    "website":"www.example.com",
    "hours":"9AM - 5PM Monday - Friday - Except Holidays",
    "phone":"011--801-000-0000",
    "zip":"95073",
    "lat":36.9857,
    "lon":-121.968518
    },
{
    "ID":"chrisdevenpeckatyahoo.com",
    "email":"chrisdevenpeckatyahoo.com",
    "name":"Mount Shasta's Green Thumb",
    "address1":"720 Pleasant Valley Lane",
    "address2":"Test Address Line 2",
    "state":"California",
    "city":"Aptos",
    "country":"United States",
    "website":"www.example.com",
    "hours":"9AM - 5PM Monday - Friday - Except Holidays",
    "phone":"011--801-000-0000",
    "zip":"95003",
    "lat":36.9840689,
    "lon":-121.8242061
    },
{
    "ID":"walker.pearcepercyatgmail.com",
    "email":"walker.pearcepercyatgmail.com",
    "name":"Tradewinds Sunglass Company",
    "address1":"609 Riverview Drive",
    "address2":"Test Address Line 2",
    "state":"California",
    "city":"Capitola",
    "country":"United States",
    "website":"www.example.com",
    "hours":"9AM - 5PM Monday - Friday - Except Holidays",
    "phone":"011--801-000-0000",
    "zip":"95010",
    "lat":36.977766,
    "lon":-121.956281
    },
{
    "ID":"surfingcowboy1atgmail.com",
    "email":"surfingcowboy1atgmail.com",
    "name":"SnoGro Indoor Gardening Supply",
    "address1":"692 38th Ave. #21",
    "address2":"Test Address Line 2",
    "state":"California",
    "city":"Santa Cruz",
    "country":"United States",
    "website":"www.example.com",
    "hours":"9AM - 5PM Monday - Friday - Except Holidays",
    "phone":"011--801-000-0000",
    "zip":"95062",
    "lat":36.962248,
    "lon":-121.966325
    },
{
    "ID":"hydrobroahgatpeoplepc.com",
    "email":"hydrobroahgatpeoplepc.com",
    "name":"Indoor Garden Solution",
    "address1":"P.O Box 353",
    "address2":"Test Address Line 2",
    "state":"Tennessee",
    "city":"Dandridge",
    "country":"United States",
    "website":"www.example.com",
    "hours":"9AM - 5PM Monday - Friday - Except Holidays",
    "phone":"011--801-000-0000",
    "zip":"37725",
    "lat":36.0153693,
    "lon":-83.4148895
    },
{
    "ID":"infoatnmhydroponic.com",
    "email":"infoatnmhydroponic.com",
    "name":"Los Angeles Hydroponics and Organics",
    "address1":"107 Jimenez St.",
    "address2":"Test Address Line 2",
    "state":"New Mexico",
    "city":"Santa Fe",
    "country":"United States",
    "website":"www.example.com",
    "hours":"9AM - 5PM Monday - Friday - Except Holidays",
    "phone":"011--801-000-0000",
    "zip":"87501",
    "lat":35.6904224,
    "lon":-105.9496809
    },
{
    "ID":"andrewtumasonatgmail.com",
    "email":"andrewtumasonatgmail.com",
    "name":"D.R.Labs s.r.l.s.",
    "address1":"148 Mesa Verde Street",
    "address2":"Test Address Line 2",
    "state":"New Mexico",
    "city":"Santa Fe",
    "country":"United States",
    "website":"www.example.com",
    "hours":"9AM - 5PM Monday - Friday - Except Holidays",
    "phone":"011--801-000-0000",
    "zip":"87501",
    "lat":35.6888052,
    "lon":-105.968186
    },
{
    "ID":"santafeindoorstoreathotmail.com",
    "email":"santafeindoorstoreathotmail.com",
    "name":"Aggressive Garden",
    "address1":"1228 parkway Drive Suite E",
    "address2":"Test Address Line 2",
    "state":"New Mexico",
    "city":"Santa Fe",
    "country":"United States",
    "website":"www.example.com",
    "hours":"9AM - 5PM Monday - Friday - Except Holidays",
    "phone":"011--801-000-0000",
    "zip":"87507",
    "lat":35.655143,
    "lon":-105.998481
    },
{
    "ID":"danthehydromanatyahoo.com",
    "email":"danthehydromanatyahoo.com",
    "name":"Maryland Hydroponics",
    "address1":"2729 Brundage Ln.",
    "address2":"Test Address Line 2",
    "state":"California",
    "city":"Bakersfield",
    "country":"United States",
    "website":"www.example.com",
    "hours":"9AM - 5PM Monday - Friday - Except Holidays",
    "phone":"011--801-000-0000",
    "zip":"93304",
    "lat":35.353798,
    "lon":-119.033373
    },
{
    "ID":"NCstoreathtgsupply.com",
    "email":"NCstoreathtgsupply.com",
    "name":"Hydroponics and More",
    "address1":"2712 Freedom Drive",
    "address2":"Test Address Line 2",
    "state":"North Carolina",
    "city":"Charlotte",
    "country":"United States",
    "website":"www.example.com",
    "hours":"9AM - 5PM Monday - Friday - Except Holidays",
    "phone":"011--801-000-0000",
    "zip":"28208",
    "lat":35.239019,
    "lon":-80.883929
    },
{
    "ID":"Mattatseaofgreen.net",
    "email":"Mattatseaofgreen.net",
    "name":"Method Seven",
    "address1":"17 N. Leroux",
    "address2":"Test Address Line 2",
    "state":"Arizona",
    "city":"Flagstaff",
    "country":"United States",
    "website":"www.example.com",
    "hours":"9AM - 5PM Monday - Friday - Except Holidays",
    "phone":"011--801-000-0000",
    "zip":"86001",
    "lat":35.1982478,
    "lon":-111.6491502
    },
{
    "ID":"Mattatseaofgreen.net",
    "email":"Mattatseaofgreen.net",
    "name":"Trans High Corp.",
    "address1":"204-C E. Route 66",
    "address2":"Test Address Line 2",
    "state":"Arizona",
    "city":"Flagstaff",
    "country":"United States",
    "website":"www.example.com",
    "hours":"9AM - 5PM Monday - Friday - Except Holidays",
    "phone":"011--801-000-0000",
    "zip":"86001",
    "lat":35.197015,
    "lon":-111.646492
    },
{
    "ID":"Cashcanyoatepbfi.com",
    "email":"Cashcanyoatepbfi.com",
    "name":"The Grow Room AU",
    "address1":"2456 cash canyon road",
    "address2":"Test Address Line 2",
    "state":"Tennessee",
    "city":"Chattanooga",
    "country":"United States",
    "website":"www.example.com",
    "hours":"9AM - 5PM Monday - Friday - Except Holidays",
    "phone":"011--801-000-0000",
    "zip":"37419",
    "lat":35.1037899,
    "lon":-85.363272
    },
{
    "ID":"hdhydroponicsatgmail.com",
    "email":"hdhydroponicsatgmail.com",
    "name":"DNA Genetics",
    "address1":"13631 Pawnee Rd.",
    "address2":"Test Address Line 2",
    "state":"California",
    "city":"Apple Valley",
    "country":"United States",
    "website":"www.example.com",
    "hours":"9AM - 5PM Monday - Friday - Except Holidays",
    "phone":"011--801-000-0000",
    "zip":"92308",
    "lat":34.4992023,
    "lon":-117.1862323
    },
{
    "ID":"infoatbvhydro.com",
    "email":"infoatbvhydro.com",
    "name":"Holland Forge Australia",
    "address1":"17455 Bear Valley Road",
    "address2":"Test Address Line 2",
    "state":"California",
    "city":"Hesperia",
    "country":"United States",
    "website":"www.example.com",
    "hours":"9AM - 5PM Monday - Friday - Except Holidays",
    "phone":"011--801-000-0000",
    "zip":"92345",
    "lat":34.470334,
    "lon":-117.282595
    },
{
    "ID":"1333145013atmethodseven.com",
    "email":"1333145013atmethodseven.com",
    "name":"Green Hands of Aloha",
    "address1":"1948 Chivers St.",
    "address2":"Test Address Line 2",
    "state":"California",
    "city":"San Fernando",
    "country":"United States",
    "website":"www.example.com",
    "hours":"9AM - 5PM Monday - Friday - Except Holidays",
    "phone":"011--801-000-0000",
    "zip":"91340",
    "lat":34.300571,
    "lon":-118.433407
    },
{
    "ID":"argadatsunlandhydro.com",
    "email":"argadatsunlandhydro.com",
    "name":"Rock Nutrients",
    "address1":"8300 Foothill Blvd.",
    "address2":"Test Address Line 2",
    "state":"California",
    "city":"Sunland",
    "country":"United States",
    "website":"www.example.com",
    "hours":"9AM - 5PM Monday - Friday - Except Holidays",
    "phone":"011--801-000-0000",
    "zip":"91040",
    "lat":34.2594616,
    "lon":-118.3135372
    },
{
    "ID":"Kyleatkushman.com",
    "email":"Kyleatkushman.com",
    "name":"Lush Lighting",
    "address1":"19803 Covello Street",
    "address2":"Test Address Line 2",
    "state":"California",
    "city":"Winnetka",
    "country":"United States",
    "website":"www.example.com",
    "hours":"9AM - 5PM Monday - Friday - Except Holidays",
    "phone":"011--801-000-0000",
    "zip":"91306",
    "lat":34.207693,
    "lon":-118.564512
    },
{
    "ID":"ajohnny88atyahoo.com",
    "email":"ajohnny88atyahoo.com",
    "name":"Oso Tool and Garden Supply",
    "address1":"12822 Victory Blvd.",
    "address2":"Test Address Line 2",
    "state":"California",
    "city":"North Hollywood",
    "country":"United States",
    "website":"www.example.com",
    "hours":"9AM - 5PM Monday - Friday - Except Holidays",
    "phone":"011--801-000-0000",
    "zip":"91606",
    "lat":34.1864771,
    "lon":-118.4126426
    },
{
    "ID":"fakeemailaddressatgmail.com",
    "email":"fakeemailaddressatgmail.com",
    "name":"Method Seven",
    "address1":"13170 Cumpston St",
    "address2":"Test Address Line 2",
    "state":"California",
    "city":"Sherman Oaks",
    "country":"United States",
    "website":"www.example.com",
    "hours":"9AM - 5PM Monday - Friday - Except Holidays",
    "phone":"011--801-000-0000",
    "zip":"91401",
    "lat":34.169186,
    "lon":-118.419835
    },
{
    "ID":"Donatdon.com",
    "email":"Donatdon.com",
    "name":"Simple Soil Hydroponics",
    "address1":"13636 Ventura Blvd Box 153",
    "address2":"Test Address Line 2",
    "state":"California",
    "city":"Sherman Oaks",
    "country":"United States",
    "website":"www.example.com",
    "hours":"9AM - 5PM Monday - Friday - Except Holidays",
    "phone":"011--801-000-0000",
    "zip":"91423",
    "lat":34.1482691,
    "lon":-118.4338345
    },
{
    "ID":"leiferjasonatgmail.com",
    "email":"leiferjasonatgmail.com",
    "name":"Method Seven Representative",
    "address1":"23350 Park Hacienda",
    "address2":"Test Address Line 2",
    "state":"California",
    "city":"Calabasas",
    "country":"United States",
    "website":"www.example.com",
    "hours":"9AM - 5PM Monday - Friday - Except Holidays",
    "phone":"011--801-000-0000",
    "zip":"91302",
    "lat":34.144884,
    "lon":-118.636235
    },
{
    "ID":"houseofhydroponicsatyahoo.com",
    "email":"houseofhydroponicsatyahoo.com",
    "name":"Growize Inc.",
    "address1":"732 West Arrow Hwy",
    "address2":"Test Address Line 2",
    "state":"California",
    "city":"San Dimas",
    "country":"United States",
    "website":"www.example.com",
    "hours":"9AM - 5PM Monday - Friday - Except Holidays",
    "phone":"011--801-000-0000",
    "zip":"91773",
    "lat":34.1065922,
    "lon":-117.8225632
    },
{
    "ID":"Jasonatgrowlite.com",
    "email":"Jasonatgrowlite.com",
    "name":"Miramar Hydroponics",
    "address1":"908 W. Calora St.",
    "address2":"Test Address Line 2",
    "state":"California",
    "city":"San Dimas",
    "country":"United States",
    "website":"www.example.com",
    "hours":"9AM - 5PM Monday - Friday - Except Holidays",
    "phone":"011--801-000-0000",
    "zip":"91773",
    "lat":34.104232,
    "lon":-117.824905
    },
{
    "ID":"nostresshydrosoatgmail.com",
    "email":"nostresshydrosoatgmail.com",
    "name":"Columbia Care",
    "address1":"7543 Santa Monica Blvd.",
    "address2":"Test Address Line 2",
    "state":"California",
    "city":"West Hollywood",
    "country":"United States",
    "website":"www.example.com",
    "hours":"9AM - 5PM Monday - Friday - Except Holidays",
    "phone":"011--801-000-0000",
    "zip":"90046",
    "lat":34.0909773,
    "lon":-118.3543082
    },
{
    "ID":"Palmtreehydroponicsatgmail.com",
    "email":"Palmtreehydroponicsatgmail.com",
    "name":"Reno Hydroponics",
    "address1":"2235 E 4th St. Suite G",
    "address2":"Test Address Line 2",
    "state":"California",
    "city":"Ontario",
    "country":"United States",
    "website":"www.example.com",
    "hours":"9AM - 5PM Monday - Friday - Except Holidays",
    "phone":"011--801-000-0000",
    "zip":"91764",
    "lat":34.0779853,
    "lon":-117.6027501
    },
{
    "ID":"Greenmilehydroatgmail.com",
    "email":"Greenmilehydroatgmail.com",
    "name":"The Big Tomato",
    "address1":"1480 South E Street",
    "address2":"Test Address Line 2",
    "state":"California",
    "city":"San Bernardino",
    "country":"United States",
    "website":"www.example.com",
    "hours":"9AM - 5PM Monday - Friday - Except Holidays",
    "phone":"011--801-000-0000",
    "zip":"92408",
    "lat":34.0729382,
    "lon":-117.2947257
    },
{
    "ID":"thaiphuatgmail.com",
    "email":"thaiphuatgmail.com",
    "name":"Grow Big Supply",
    "address1":"2701 Merced Ave.",
    "address2":"Test Address Line 2",
    "state":"California",
    "city":"El Monte",
    "country":"United States",
    "website":"www.example.com",
    "hours":"9AM - 5PM Monday - Friday - Except Holidays",
    "phone":"011--801-000-0000",
    "zip":"91733",
    "lat":34.060994,
    "lon":-118.051726
    },
{
    "ID":"templehydroshopatgmail.com",
    "email":"templehydroshopatgmail.com",
    "name":"GreenSpirit Hydrogardens",
    "address1":"3503 Temple Ave Suite A",
    "address2":"Test Address Line 2",
    "state":"California",
    "city":"Pomona",
    "country":"United States",
    "website":"www.example.com",
    "hours":"9AM - 5PM Monday - Friday - Except Holidays",
    "phone":"011--801-000-0000",
    "zip":"91768",
    "lat":34.0478134,
    "lon":-117.8114906
    },
{
    "ID":"keishaatoslholding.com",
    "email":"keishaatoslholding.com",
    "name":"High Wire Hydroponics",
    "address1":"1428 Nadeao Drive",
    "address2":"Test Address Line 2",
    "state":"California",
    "city":"Los Angeles",
    "country":"United States",
    "website":"www.example.com",
    "hours":"9AM - 5PM Monday - Friday - Except Holidays",
    "phone":"011--801-000-0000",
    "zip":"90019",
    "lat":34.0462677,
    "lon":-118.3326564
    },
{
    "ID":"maxatdthydro.com",
    "email":"maxatdthydro.com",
    "name":"Method Seven Sales",
    "address1":"443 East 16 Street",
    "address2":"Test Address Line 2",
    "state":"California",
    "city":"Los Angeles",
    "country":"United States",
    "website":"www.example.com",
    "hours":"9AM - 5PM Monday - Friday - Except Holidays",
    "phone":"011--801-000-0000",
    "zip":"90015",
    "lat":34.03127,
    "lon":-118.257811
    },
{
    "ID":"dthydroatyahoo.com",
    "email":"dthydroatyahoo.com",
    "name":"West Coast Avengers",
    "address1":"443 East 16th Street",
    "address2":"Test Address Line 2",
    "state":"California",
    "city":"Los Angeles",
    "country":"United States",
    "website":"www.example.com",
    "hours":"9AM - 5PM Monday - Friday - Except Holidays",
    "phone":"011--801-000-0000",
    "zip":"90015",
    "lat":34.03127,
    "lon":-118.257811
    },
{
    "ID":"managerathydroponicsinc.net",
    "email":"managerathydroponicsinc.net",
    "name":"Growlite",
    "address1":"3811 Wacker Dr.",
    "address2":"Test Address Line 2",
    "state":"California",
    "city":"Riverside",
    "country":"United States",
    "website":"www.example.com",
    "hours":"9AM - 5PM Monday - Friday - Except Holidays",
    "phone":"011--801-000-0000",
    "zip":"91752",
    "lat":34.0179058,
    "lon":-117.5158622
    },
{
    "ID":"keithatthehydrosource.com",
    "email":"keithatthehydrosource.com",
    "name":"Rain City Hydro",
    "address1":"11760 Slauson Ave",
    "address2":"Test Address Line 2",
    "state":"California",
    "city":"Santa Fe Springs",
    "country":"United States",
    "website":"www.example.com",
    "hours":"9AM - 5PM Monday - Friday - Except Holidays",
    "phone":"011--801-000-0000",
    "zip":"90670",
    "lat":33.96397,
    "lon":-118.064409
    },
{
    "ID":"infoatflorahydroponics.com",
    "email":"infoatflorahydroponics.com",
    "name":"Atwater Hydroponics Inc.",
    "address1":"1239 Fowler Street NW",
    "address2":"Test Address Line 2",
    "state":"Georgia",
    "city":"Athens",
    "country":"United States",
    "website":"www.example.com",
    "hours":"9AM - 5PM Monday - Friday - Except Holidays",
    "phone":"011--801-000-0000",
    "zip":"30607",
    "lat":33.9629393,
    "lon":-83.506363
    },
{
    "ID":"pitbulldan83atyahoo.com",
    "email":"pitbulldan83atyahoo.com",
    "name":"Esposito Garden Center",
    "address1":"4832 W 141st Street",
    "address2":"Test Address Line 2",
    "state":"California",
    "city":"Hawthorne",
    "country":"United States",
    "website":"www.example.com",
    "hours":"9AM - 5PM Monday - Friday - Except Holidays",
    "phone":"011--801-000-0000",
    "zip":"90250",
    "lat":33.903449,
    "lon":-118.362458
    },
{
    "ID":"lahydroatatt.net",
    "email":"lahydroatatt.net",
    "name":"Senmatic A/S",
    "address1":"2805 W. 157th Street",
    "address2":"Test Address Line 2",
    "state":"California",
    "city":"Gardena",
    "country":"United States",
    "website":"www.example.com",
    "hours":"9AM - 5PM Monday - Friday - Except Holidays",
    "phone":"011--801-000-0000",
    "zip":"90249",
    "lat":33.888554,
    "lon":-118.324448
    },
{
    "ID":"Raphaeatraphael.com",
    "email":"Raphaeatraphael.com",
    "name":"Method Seven Marketing & Trade Shows",
    "address1":"2109 Graham Ave.",
    "address2":"Test Address Line 2",
    "state":"California",
    "city":"Redondo Beach",
    "country":"United States",
    "website":"www.example.com",
    "hours":"9AM - 5PM Monday - Friday - Except Holidays",
    "phone":"011--801-000-0000",
    "zip":"90278",
    "lat":33.8795487,
    "lon":-118.3740541
    },
{
    "ID":"jackiatmytotalhydroponicscenter.com",
    "email":"jackiatmytotalhydroponicscenter.com",
    "name":"Urban Organics (FL",
    "address1":"4820 Paramount Blvd",
    "address2":"Test Address Line 2",
    "state":"California",
    "city":"Lakewood",
    "country":"United States",
    "website":"www.example.com",
    "hours":"9AM - 5PM Monday - Friday - Except Holidays",
    "phone":"011--801-000-0000",
    "zip":"90712",
    "lat":33.8465398,
    "lon":-118.1596653
    },
{
    "ID":"pshydroponicsatgmail.com",
    "email":"pshydroponicsatgmail.com",
    "name":"Mendocino County Hydrogardens",
    "address1":"1301 Montalvo Way Suite 8",
    "address2":"Test Address Line 2",
    "state":"California",
    "city":"Palm Springs",
    "country":"United States",
    "website":"www.example.com",
    "hours":"9AM - 5PM Monday - Friday - Except Holidays",
    "phone":"011--801-000-0000",
    "zip":"92262",
    "lat":33.840822,
    "lon":-116.510265
    },
{
    "ID":"zenredatlive.com",
    "email":"zenredatlive.com",
    "name":"Growers House",
    "address1":"1301 Montalvo Way Suite 8",
    "address2":"Test Address Line 2",
    "state":"California",
    "city":"Palm Springs",
    "country":"United States",
    "website":"www.example.com",
    "hours":"9AM - 5PM Monday - Friday - Except Holidays",
    "phone":"011--801-000-0000",
    "zip":"92262",
    "lat":33.8407223,
    "lon":-116.5099738
    },
{
    "ID":"joemartinatatlantishydroponics.com",
    "email":"joemartinatatlantishydroponics.com",
    "name":"Purple Mountain Hydroponics",
    "address1":"1422 Woodmont Lane Suite #4",
    "address2":"Test Address Line 2",
    "state":"Georgia",
    "city":"Atlanta",
    "country":"United States",
    "website":"www.example.com",
    "hours":"9AM - 5PM Monday - Friday - Except Holidays",
    "phone":"011--801-000-0000",
    "zip":"30318",
    "lat":33.8031886,
    "lon":-84.4342073
    },
{
    "ID":"scottatdutchgardensupplies.com",
    "email":"scottatdutchgardensupplies.com",
    "name":"Third Coast Horticulture Supply",
    "address1":"17831 Sky Park Circle Ste 12 C-D",
    "address2":"Test Address Line 2",
    "state":"California",
    "city":"Irvine",
    "country":"United States",
    "website":"www.example.com",
    "hours":"9AM - 5PM Monday - Friday - Except Holidays",
    "phone":"011--801-000-0000",
    "zip":"92614",
    "lat":33.6902506,
    "lon":-117.8616077
    },
{
    "ID":"matmethodseven.com",
    "email":"matmethodseven.com",
    "name":"Deep Roots Hydroponics",
    "address1":"3855 Ruby Harper Blvd",
    "address2":"Test Address Line 2",
    "state":"Georgia",
    "city":"Atlanta",
    "country":"United States",
    "website":"www.example.com",
    "hours":"9AM - 5PM Monday - Friday - Except Holidays",
    "phone":"011--801-000-0000",
    "zip":"30354",
    "lat":33.6495397,
    "lon":-84.3805862
    },
{
    "ID":"grassrootshydrochickatgmail.com",
    "email":"grassrootshydrochickatgmail.com",
    "name":"Oil Slick",
    "address1":"31875 Corydon Rd Suite #130",
    "address2":"Test Address Line 2",
    "state":"California",
    "city":"Lake Elsinore",
    "country":"United States",
    "website":"www.example.com",
    "hours":"9AM - 5PM Monday - Friday - Except Holidays",
    "phone":"011--801-000-0000",
    "zip":"92530",
    "lat":33.63244,
    "lon":-117.293869
    },
{
    "ID":"thehydroclosetatyahoo.com",
    "email":"thehydroclosetatyahoo.com",
    "name":"Kern Hydroponics",
    "address1":"5826 W Olive Ave.",
    "address2":"Test Address Line 2",
    "state":"Arizona",
    "city":"Glendale",
    "country":"United States",
    "website":"www.example.com",
    "hours":"9AM - 5PM Monday - Friday - Except Holidays",
    "phone":"011--801-000-0000",
    "zip":"85302",
    "lat":33.5690279,
    "lon":-112.1846084
    },
{
    "ID":"editorat420magazine.com",
    "email":"editorat420magazine.com",
    "name":"Greenleaf Hydroponics AU",
    "address1":"14 Monarch Bay Plaza #420",
    "address2":"Test Address Line 2",
    "state":"California",
    "city":"Monarch Beach",
    "country":"United States",
    "website":"www.example.com",
    "hours":"9AM - 5PM Monday - Friday - Except Holidays",
    "phone":"011--801-000-0000",
    "zip":"92629",
    "lat":33.4860351,
    "lon":-117.72453
    },
{
    "ID":"stevenatseaofgreen.com",
    "email":"stevenatseaofgreen.com",
    "name":"Ultra Green Hydroponics",
    "address1":"1301 E. University Dr. #134",
    "address2":"Test Address Line 2",
    "state":"Arizona",
    "city":"Tempe",
    "country":"United States",
    "website":"www.example.com",
    "hours":"9AM - 5PM Monday - Friday - Except Holidays",
    "phone":"011--801-000-0000",
    "zip":"85281",
    "lat":33.4215567,
    "lon":-111.9169322
    },
{
    "ID":"gardensolutionsazatgmail.com",
    "email":"gardensolutionsazatgmail.com",
    "name":"Hydro Ponics Inc.",
    "address1":"2245 W. University Dr. Ste. 3",
    "address2":"Test Address Line 2",
    "state":"Arizona",
    "city":"Tempe",
    "country":"United States",
    "website":"www.example.com",
    "hours":"9AM - 5PM Monday - Friday - Except Holidays",
    "phone":"011--801-000-0000",
    "zip":"85281",
    "lat":33.4213911,
    "lon":-111.9726791
    },
{
    "ID":"northcountyhydroponicsatgmail.com",
    "email":"northcountyhydroponicsatgmail.com",
    "name":"Green Grow",
    "address1":"115 South Coast Highway",
    "address2":"Test Address Line 2",
    "state":"California",
    "city":"Oceanside",
    "country":"United States",
    "website":"www.example.com",
    "hours":"9AM - 5PM Monday - Friday - Except Holidays",
    "phone":"011--801-000-0000",
    "zip":"92054",
    "lat":33.1945062,
    "lon":-117.3785035
    },
{
    "ID":"amandaatsdhydroponics.com",
    "email":"amandaatsdhydroponics.com",
    "name":"Endless Green Hydroponics",
    "address1":"802 North Twin Oaks Valley Road",
    "address2":"Test Address Line 2",
    "state":"California",
    "city":"San Marcos",
    "country":"United States",
    "website":"www.example.com",
    "hours":"9AM - 5PM Monday - Friday - Except Holidays",
    "phone":"011--801-000-0000",
    "zip":"92069",
    "lat":33.1535039,
    "lon":-117.1620072
    },
{
    "ID":"infoatgreenspirithydro.com",
    "email":"infoatgreenspirithydro.com",
    "name":"The Grow Show",
    "address1":"1864 Meeting Street",
    "address2":"Test Address Line 2",
    "state":"South Carolina",
    "city":"Charleston",
    "country":"United States",
    "website":"www.example.com",
    "hours":"9AM - 5PM Monday - Friday - Except Holidays",
    "phone":"011--801-000-0000",
    "zip":"29405",
    "lat":32.8296732,
    "lon":-79.9522025
    },
{
    "ID":"infoatgreenspirithydro.com",
    "email":"infoatgreenspirithydro.com",
    "name":"Full Scale Soil and Hydro",
    "address1":"3002 Coopers Basin Cir",
    "address2":"Test Address Line 2",
    "state":"South Carolina",
    "city":"Charleston",
    "country":"United States",
    "website":"www.example.com",
    "hours":"9AM - 5PM Monday - Friday - Except Holidays",
    "phone":"011--801-000-0000",
    "zip":"29414",
    "lat":32.807743,
    "lon":-80.080841
    },
{
    "ID":"miramarhydroatyahoo.com",
    "email":"miramarhydroatyahoo.com",
    "name":"Maine Hydroponic Supply",
    "address1":"1338 Marline Ave",
    "address2":"Test Address Line 2",
    "state":"California",
    "city":"El Cajon",
    "country":"United States",
    "website":"www.example.com",
    "hours":"9AM - 5PM Monday - Friday - Except Holidays",
    "phone":"011--801-000-0000",
    "zip":"92021",
    "lat":32.805521,
    "lon":-116.933463
    },
{
    "ID":"infoatmightyhydro.com",
    "email":"infoatmightyhydro.com",
    "name":"Indoor Farming Supplies",
    "address1":"4780 Mission Gorge Place A1",
    "address2":"Test Address Line 2",
    "state":"California",
    "city":"San Diego",
    "country":"United States",
    "website":"www.example.com",
    "hours":"9AM - 5PM Monday - Friday - Except Holidays",
    "phone":"011--801-000-0000",
    "zip":"92120",
    "lat":32.7813631,
    "lon":-117.0913344
    },
{
    "ID":"rod.lertolaathydrodynamicsintl.com",
    "email":"rod.lertolaathydrodynamicsintl.com",
    "name":"The Plant",
    "address1":"8707 Temple Terrace Hwy",
    "address2":"Test Address Line 2",
    "state":"Florida",
    "city":"Tampa",
    "country":"United States",
    "website":"www.example.com",
    "hours":"9AM - 5PM Monday - Friday - Except Holidays",
    "phone":"011--801-000-0000",
    "zip":"33637",
    "lat":28.0324518,
    "lon":-82.3562666
    },
{
    "ID":"Thefuturefarmsatcomcast.net",
    "email":"Thefuturefarmsatcomcast.net",
    "name":"Go Green Hydroponics",
    "address1":"14291 SW 120th St. Suite 105",
    "address2":"Test Address Line 2",
    "state":"Florida",
    "city":"Miami",
    "country":"United States",
    "website":"www.example.com",
    "hours":"9AM - 5PM Monday - Friday - Except Holidays",
    "phone":"011--801-000-0000",
    "zip":"33186",
    "lat":25.6557751,
    "lon":-80.4270664
    },
{
    "ID":"jeff.gibsonatsuperiorgrowers.com",
    "email":"jeff.gibsonatsuperiorgrowers.com",
    "name":"Method Seven",
    "address1":"13080 SW 248th St Unit 11",
    "address2":"Test Address Line 2",
    "state":"Florida",
    "city":"Homestead",
    "country":"United States",
    "website":"www.example.com",
    "hours":"9AM - 5PM Monday - Friday - Except Holidays",
    "phone":"011--801-000-0000",
    "zip":"33032",
    "lat":25.536359,
    "lon":-80.404042
    },
{
    "ID":"infoatGrowforXS.com",
    "email":"infoatGrowforXS.com",
    "name":"EcoGrow LED",
    "address1":"24 Simms Road",
    "address2":"Test Address Line 2",
    "state":"WA",
    "city":"Greensborough",
    "country":"United States",
    "website":"www.example.com",
    "hours":"9AM - 5PM Monday - Friday - Except Holidays",
    "phone":"011--801-000-0000",
    "zip":"3008",
    "lat":-37.711954,
    "lon":145.11134
    },
{
    "ID":"infoattruebloominhydroponics.com",
    "email":"infoattruebloominhydroponics.com",
    "name":"Vertical Hydrogarden",
    "address1":"7/36 Port Kembla Drive",
    "address2":"Test Address Line 2",
    "state":"WA",
    "city":"Bibra Lake",
    "country":"United States",
    "website":"www.example.com",
    "hours":"9AM - 5PM Monday - Friday - Except Holidays",
    "phone":"011--801-000-0000",
    "zip":"6163",
    "lat":-32.099786,
    "lon":115.800884
    },
{
    "ID":"infoatthegrowroom.com",
    "email":"infoatthegrowroom.com",
    "name":"The Urban Garden",
    "address1":"1/1451 Albany Highway",
    "address2":"Test Address Line 2",
    "state":"WA",
    "city":"Cannington",
    "country":"United States",
    "website":"www.example.com",
    "hours":"9AM - 5PM Monday - Friday - Except Holidays",
    "phone":"011--801-000-0000",
    "zip":"6107",
    "lat":-32.026276,
    "lon":115.94215
    },
{
    "ID":"csteeleatheliospectra.com",
    "email":"csteeleatheliospectra.com",
    "name":"Marijuana Venture Magazine",
    "address1":"SIK, Frans Perssons väg 6",
    "address2":"Test Address Line 2",
    "state":"Göteborg",
    "city":"Delsjömotet",
    "country":"Sweden",
    "website":"www.example.com",
    "hours":"9AM - 5PM Monday - Friday - Except Holidays",
    "phone":"011--801-000-0000",
    "zip":"SE-412 76",
    "lat":57.6827145,
    "lon":12.0302828
    },
{
    "ID":"Themabpatrambler.ru",
    "email":"Themabpatrambler.ru",
    "name":"Sweet Lime",
    "address1":"Generala Tuleneva street. 7/2 269",
    "address2":"Test Address Line 2",
    "state":"Dealer",
    "city":"Moscow",
    "country":"Russia",
    "website":"www.example.com",
    "hours":"9AM - 5PM Monday - Friday - Except Holidays",
    "phone":"011--801-000-0000",
    "zip":"117465",
    "lat":55.621704,
    "lon":37.485855
    },
{
    "ID":"Conflo2004athotmail.com",
    "email":"Conflo2004athotmail.com",
    "name":"Grow RI Newport",
    "address1":"35 Griffin Grove",
    "address2":"Test Address Line 2",
    "state":"Dealer",
    "city":"Levenshulme",
    "country":"United Kingdom",
    "website":"www.example.com",
    "hours":"9AM - 5PM Monday - Friday - Except Holidays",
    "phone":"011--801-000-0000",
    "zip":"M19 2QQ",
    "lat":53.4397258,
    "lon":-2.189767
    },
{
    "ID":"dennisatdrehandel.de",
    "email":"dennisatdrehandel.de",
    "name":"Amazon FBA",
    "address1":"Libauer Str. 17",
    "address2":"Test Address Line 2",
    "state":"Berlin",
    "city":"Berlin",
    "country":"Germany",
    "website":"www.example.com",
    "hours":"9AM - 5PM Monday - Friday - Except Holidays",
    "phone":"011--801-000-0000",
    "zip":"10245",
    "lat":52.5091134,
    "lon":13.4540036
    },
{
    "ID":"martinewatgerbera.com",
    "email":"martinewatgerbera.com",
    "name":"New England Hydroponics",
    "address1":"P.O. Box 3",
    "address2":"Test Address Line 2",
    "state":"Dealer",
    "city":"AA Aalsmeer",
    "country":"Netherlands",
    "website":"www.example.com",
    "hours":"9AM - 5PM Monday - Friday - Except Holidays",
    "phone":"011--801-000-0000",
    "zip":"1430",
    "lat":52.3505505,
    "lon":4.8496748
    },
{
    "ID":"Growshopatplantator.com.pl",
    "email":"Growshopatplantator.com.pl",
    "name":"All Ways Hydro",
    "address1":"ul. Poznanska 49",
    "address2":"Test Address Line 2",
    "state":"Dealer",
    "city":"Wiorek",
    "country":"Poland",
    "website":"www.example.com",
    "hours":"9AM - 5PM Monday - Friday - Except Holidays",
    "phone":"011--801-000-0000",
    "zip":"61-160",
    "lat":52.3036778,
    "lon":16.908081
    },
{
    "ID":"martinewatgerbera.com",
    "email":"martinewatgerbera.com",
    "name":"East Coast Hydro",
    "address1":"Dwarsweg 15",
    "address2":"Test Address Line 2",
    "state":"Dealer",
    "city":"PL De Kwakel",
    "country":"Netherlands",
    "website":"www.example.com",
    "hours":"9AM - 5PM Monday - Friday - Except Holidays",
    "phone":"011--801-000-0000",
    "zip":"1424",
    "lat":52.2293971,
    "lon":4.7558489
    },
{
    "ID":"angharadblayneyatgmail.com",
    "email":"angharadblayneyatgmail.com",
    "name":"Planet Natural",
    "address1":"41 High Cross Lane",
    "address2":"Test Address Line 2",
    "state":"South Wales",
    "city":"Newport",
    "country":"Wales",
    "website":"www.example.com",
    "hours":"9AM - 5PM Monday - Friday - Except Holidays",
    "phone":"011--801-000-0000",
    "zip":"NP10 9BG",
    "lat":51.5842416,
    "lon":-3.0381256
    },
{
    "ID":"winiatgrow.de",
    "email":"winiatgrow.de",
    "name":"MethodSeven Sales",
    "address1":"Liebenauer Str. 19a",
    "address2":"Test Address Line 2",
    "state":"Hessen",
    "city":"Liebenau",
    "country":"Austria",
    "website":"www.example.com",
    "hours":"9AM - 5PM Monday - Friday - Except Holidays",
    "phone":"011--801-000-0000",
    "zip":"34396",
    "lat":51.49179,
    "lon":9.27074
    },
{
    "ID":"infoatsemenakonopi.cz",
    "email":"infoatsemenakonopi.cz",
    "name":"Hydro 101",
    "address1":"Raisova 15",
    "address2":"Test Address Line 2",
    "state":"Dealer",
    "city":"Usti nad Labem",
    "country":"Czech Republic",
    "website":"www.example.com",
    "hours":"9AM - 5PM Monday - Friday - Except Holidays",
    "phone":"011--801-000-0000",
    "zip":"400 03",
    "lat":50.6573787,
    "lon":14.0477802
    },
{
    "ID":"originalgrowshopatgmail.com",
    "email":"originalgrowshopatgmail.com",
    "name":"Northern Lights Gardening",
    "address1":"Palackeho 203",
    "address2":"Test Address Line 2",
    "state":"Dealer",
    "city":"Marianske Lazne",
    "country":"Czech Republic",
    "website":"www.example.com",
    "hours":"9AM - 5PM Monday - Friday - Except Holidays",
    "phone":"011--801-000-0000",
    "zip":"35301",
    "lat":49.955867,
    "lon":12.7095398
    },
{
    "ID":"pawelpiotrdtvathotmail.com",
    "email":"pawelpiotrdtvathotmail.com",
    "name":"Dayton Hydro",
    "address1":"Gustawa Morcinka 5/73",
    "address2":"Test Address Line 2",
    "state":"Dealer",
    "city":"Skoczow",
    "country":"Poland",
    "website":"www.example.com",
    "hours":"9AM - 5PM Monday - Friday - Except Holidays",
    "phone":"011--801-000-0000",
    "zip":"43-430",
    "lat":49.7942158,
    "lon":18.7864815
    },
{
    "ID":"helena.urbankovaatmazar.cz",
    "email":"helena.urbankovaatmazar.cz",
    "name":"Method Seven",
    "address1":"Mathonova 20",
    "address2":"Test Address Line 2",
    "state":"Dealer",
    "city":"Brno",
    "country":"Czech Republic",
    "website":"www.example.com",
    "hours":"9AM - 5PM Monday - Friday - Except Holidays",
    "phone":"011--801-000-0000",
    "zip":"61300",
    "lat":49.2139487,
    "lon":16.6232335
    },
{
    "ID":"osijekatigrow.com.hr",
    "email":"osijekatigrow.com.hr",
    "name":"Happy Harvesters (AZ)",
    "address1":"Hrvatske Republike 43",
    "address2":"Test Address Line 2",
    "state":"Dealer",
    "city":"Osijek",
    "country":"Croatia",
    "website":"www.example.com",
    "hours":"9AM - 5PM Monday - Friday - Except Holidays",
    "phone":"011--801-000-0000",
    "zip":"31000",
    "lat":45.5582336,
    "lon":18.6767844
    },
{
    "ID":"jorgeatplantasur.com",
    "email":"jorgeatplantasur.com",
    "name":"Mother Nature Hydroponics",
    "address1":"Poligono Industrial Asegra C/Sierra De Lujar 1",
    "address2":"Test Address Line 2",
    "state":"Granada",
    "city":"Peligros",
    "country":"Spain",
    "website":"www.example.com",
    "hours":"9AM - 5PM Monday - Friday - Except Holidays",
    "phone":"011--801-000-0000",
    "zip":"18210",
    "lat":37.22824,
    "lon":-3.62632
    },
{
    "ID":"miramarhydroatyahoo.com",
    "email":"miramarhydroatyahoo.com",
    "name":"Indoor Eden",
    "address1":"5360 Marengo Ave Apt. 44",
    "address2":"Test Address Line 2",
    "state":"California",
    "city":"La Mesa",
    "country":"United States",
    "website":"www.example.com",
    "hours":"9AM - 5PM Monday - Friday - Except Holidays",
    "phone":"011--801-000-0000",
    "zip":"91942",
    "lat":32.776386,
    "lon":-117.023529
    },
{
    "ID":"ryan.acostaatsdhydroponics.com",
    "email":"ryan.acostaatsdhydroponics.com",
    "name":"Placebo Sårl",
    "address1":"645 Marsat Ct. #101",
    "address2":"Test Address Line 2",
    "state":"California",
    "city":"Chula Vista",
    "country":"United States",
    "website":"www.example.com",
    "hours":"9AM - 5PM Monday - Friday - Except Holidays",
    "phone":"011--801-000-0000",
    "zip":"91911",
    "lat":32.6005372,
    "lon":-117.0818294
    },
{
    "ID":"geneatgene.com",
    "email":"geneatgene.com",
    "name":"Grace's Gardening",
    "address1":"1951 E Roger Rd",
    "address2":"Test Address Line 2",
    "state":"Arizona",
    "city":"Tucson",
    "country":"United States",
    "website":"www.example.com",
    "hours":"9AM - 5PM Monday - Friday - Except Holidays",
    "phone":"011--801-000-0000",
    "zip":"85719",
    "lat":32.2794917,
    "lon":-110.9429131
    },
{
    "ID":"kartikaatgrowershouse.com",
    "email":"kartikaatgrowershouse.com",
    "name":"Aurora Hydroponics",
    "address1":"1501 E. 21st St.",
    "address2":"Test Address Line 2",
    "state":"Arizona",
    "city":"Tuscon",
    "country":"United States",
    "website":"www.example.com",
    "hours":"9AM - 5PM Monday - Friday - Except Holidays",
    "phone":"011--801-000-0000",
    "zip":"85719",
    "lat":32.2085463,
    "lon":-110.9486531
    },
{
    "ID":"Chaselancaster.pkatgmail.com",
    "email":"Chaselancaster.pkatgmail.com",
    "name":"C.A.R.E.",
    "address1":"P.O. Box 13549",
    "address2":"Test Address Line 2",
    "state":"Texas",
    "city":"Austin",
    "country":"United States",
    "website":"www.example.com",
    "hours":"9AM - 5PM Monday - Friday - Except Holidays",
    "phone":"011--801-000-0000",
    "zip":"78711",
    "lat":30.2781094,
    "lon":-97.738445
    },
{
    "ID":"troyatbihydro.com",
    "email":"troyatbihydro.com",
    "name":"Hindmarsh Hydroponics AU",
    "address1":"4201 South Congress",
    "address2":"Test Address Line 2",
    "state":"Texas",
    "city":"Austin",
    "country":"United States",
    "website":"www.example.com",
    "hours":"9AM - 5PM Monday - Friday - Except Holidays",
    "phone":"011--801-000-0000",
    "zip":"78745",
    "lat":30.2205088,
    "lon":-97.7648499
    },
{
    "ID":"chris.gatorhydroatgmail.com",
    "email":"chris.gatorhydroatgmail.com",
    "name":"West Coast Hydroponics",
    "address1":"4460 SW 35th Terrace",
    "address2":"Test Address Line 2",
    "state":"Florida",
    "city":"Gainsville",
    "country":"United States",
    "website":"www.example.com",
    "hours":"9AM - 5PM Monday - Friday - Except Holidays",
    "phone":"011--801-000-0000",
    "zip":"32608",
    "lat":29.611205,
    "lon":-82.375556
    },
{
    "ID":"Jmarie1217atyahoo.com",
    "email":"Jmarie1217atyahoo.com",
    "name":"Happy Harvesters",
    "address1":"8438 timber bridge",
    "address2":"Test Address Line 2",
    "state":"Texas",
    "city":"San Antonio",
    "country":"United States",
    "website":"www.example.com",
    "hours":"9AM - 5PM Monday - Friday - Except Holidays",
    "phone":"011--801-000-0000",
    "zip":"78250",
    "lat":29.494422,
    "lon":-98.654889
    },
{
    "ID":"JessicaVivian8atyahoo.com",
    "email":"JessicaVivian8atyahoo.com",
    "name":"Green Thumb Organics",
    "address1":"1313 West Church Street",
    "address2":"Test Address Line 2",
    "state":"New York",
    "city":"Deland",
    "country":"United States",
    "website":"www.example.com",
    "hours":"9AM - 5PM Monday - Friday - Except Holidays",
    "phone":"011--801-000-0000",
    "zip":"32720",
    "lat":29.030892,
    "lon":-81.329734
    },
{
    "ID":"carolinefianeatgmail.com",
    "email":"carolinefianeatgmail.com",
    "name":"Cultivation Innovations",
    "address1":"Urbinizacion Caleta alta 19",
    "address2":"Test Address Line 2",
    "state":"Las Palmas",
    "city":"Caleta De Fuste",
    "country":"Spain",
    "website":"www.example.com",
    "hours":"9AM - 5PM Monday - Friday - Except Holidays",
    "phone":"011--801-000-0000",
    "zip":"35610",
    "lat":28.3968004,
    "lon":-13.8638232
    },
{
    "ID":"rpoortatbigpond.net.au",
    "email":"rpoortatbigpond.net.au",
    "name":"Growsystem GmbH Oberbüren",
    "address1":"22 Chris Drive",
    "address2":"Test Address Line 2",
    "state":"VC",
    "city":"Lilydale",
    "country":"Australia",
    "website":"www.example.com",
    "hours":"9AM - 5PM Monday - Friday - Except Holidays",
    "phone":"011--801-000-0000",
    "zip":"3140",
    "lat":-37.7475029,
    "lon":145.3507634
    },
{
    "ID":"infoatBardo.com",
    "email":"infoatBardo.com",
    "name":"Mark's Hydroponics And Organic Gardening",
    "address1":"4/20 Sunset Ave.",
    "address2":"Test Address Line 2",
    "state":"VC",
    "city":"Barrack Heights",
    "country":"Australia",
    "website":"www.example.com",
    "hours":"9AM - 5PM Monday - Friday - Except Holidays",
    "phone":"011--801-000-0000",
    "zip":"2528",
    "lat":-34.560553,
    "lon":150.85795
    },
{
    "ID":"infoatgrowguru.co.za",
    "email":"infoatgrowguru.co.za",
    "name":"Solos Grow Shop",
    "address1":"74 3rd Avenue, Newton Park",
    "address2":"Test Address Line 2",
    "state":"Dealer",
    "city":"Port Elizabeth",
    "country":"South Africa",
    "website":"www.example.com",
    "hours":"9AM - 5PM Monday - Friday - Except Holidays",
    "phone":"011--801-000-0000",
    "zip":"6045",
    "lat":-33.95235,
    "lon":25.56755
    },
{
    "ID":"ctutunatgmail.com",
    "email":"ctutunatgmail.com",
    "name":"Indoor Plant Kingdom LLC",
    "address1":"8 Stock Farm Ave",
    "address2":"Test Address Line 2",
    "state":"NSW",
    "city":"Bella Vista",
    "country":"Australia",
    "website":"www.example.com",
    "hours":"9AM - 5PM Monday - Friday - Except Holidays",
    "phone":"011--801-000-0000",
    "zip":"2153",
    "lat":-33.739094,
    "lon":150.961276
    },
{
    "ID":"ctutunatgmail.com",
    "email":"ctutunatgmail.com",
    "name":"Salida Hydroponic Supply",
    "address1":"8 Stock Farm Ave",
    "address2":"Test Address Line 2",
    "state":"NSW",
    "city":"Bella Vista",
    "country":"Australia",
    "website":"www.example.com",
    "hours":"9AM - 5PM Monday - Friday - Except Holidays",
    "phone":"011--801-000-0000",
    "zip":"2153",
    "lat":-33.739094,
    "lon":150.961276
    },
{
    "ID":"alisteratoz.com",
    "email":"alisteratoz.com",
    "name":"Green Acres Hydroponics AU",
    "address1":"P.O. Box 146",
    "address2":"Test Address Line 2",
    "state":"NSW",
    "city":"Kenthurst",
    "country":"Australia",
    "website":"www.example.com",
    "hours":"9AM - 5PM Monday - Friday - Except Holidays",
    "phone":"011--801-000-0000",
    "zip":"2156",
    "lat":-33.6611485,
    "lon":151.0052512
    }

],
 "meta": {
    "page": 1,
    "per_page": 500,
    "count": 280,
    "total_pages": 1
  }
}